{
  "generated_at": "2026-07-21 19:19",
  "source_page": "https://www.ontario.ca/page/publicly-funded-physiotherapy-clinic-locations",
  "resource_id": "6238e64a-e5a9-484b-97b2-774640f7ab99",
  "total_records": 255,
  "clinics": [
    {
      "name": "Focus Physiotherapy (York) Inc.",
      "category": "clinic",
      "facility_type": "Community Physiotherapy Clinic",
      "address": "11-2007 Lawrence Ave West, York, Ontario, M9V 3V1",
      "city": "York",
      "postal_code": "M9V 3V1",
      "phone": "416-244-3810",
      "email": "info@focusphysiotherapy.com",
      "lat": 43.7001921,
      "lon": -79.5092915,
      "precision": "address"
    },
    {
      "name": "LifeMark Physiotherapy - Hamilton Main East",
      "category": "clinic",
      "facility_type": "Community Physiotherapy Clinic",
      "address": "5-1440 Main Street East, Hamilton, Ontario, L8K 6M3",
      "city": "Hamilton",
      "postal_code": "L8K 6M3",
      "phone": "905-544-0053",
      "email": "hamilton-maine@lifemark.ca",
      "lat": 43.2405288,
      "lon": -79.8103238,
      "precision": "address"
    },
    {
      "name": "Centerpoint Medical Centre",
      "category": "clinic",
      "facility_type": "Community Physiotherapy Clinic",
      "address": "8-3585 Keele Street, North York, Ontario, M3J 3H5",
      "city": "North York",
      "postal_code": "M3J 3H5",
      "phone": "416-631-7797",
      "email": "cmc-downsview@rogers.com",
      "lat": 43.7497289,
      "lon": -79.4874346,
      "precision": "address"
    },
    {
      "name": "PT Health - Victoria Physiotherapy",
      "category": "clinic",
      "facility_type": "Community Physiotherapy Clinic",
      "address": "L2-414 Victoria Avenue North, Hamilton, Ontario, L8L 5G8",
      "city": "Hamilton",
      "postal_code": "L8L 5G8",
      "phone": "289-919-4115",
      "email": "victoriaphysio@pthealth.ca",
      "lat": 43.2657228,
      "lon": -79.8510294,
      "precision": "address"
    },
    {
      "name": "Professional Physiotherapy Centre",
      "category": "clinic",
      "facility_type": "Community Physiotherapy Clinic",
      "address": "202-2100 Lawrence Avenue West, York, Ontario, M9N 3W3",
      "city": "York",
      "postal_code": "M9N 3W3",
      "phone": "416-241-2321",
      "email": "prophysiotherapy@hotmail.com",
      "lat": 43.69977,
      "lon": -79.51881,
      "precision": "address"
    },
    {
      "name": "PT Health - Six Points Physiotherapy",
      "category": "clinic",
      "facility_type": "Community Physiotherapy Clinic",
      "address": "106-5468 Dundas Street West, Etobicoke, Ontario, M9B 6E3",
      "city": "Etobicoke",
      "postal_code": "M9B 6E3",
      "phone": "647-361-0075",
      "email": "sixpointsphysio@pthealth.ca",
      "lat": 43.6328124,
      "lon": -79.544639,
      "precision": "address"
    },
    {
      "name": "LifeMark Physiotherapy - Hamilton Mohawk",
      "category": "clinic",
      "facility_type": "Community Physiotherapy Clinic",
      "address": "3-210 Mohawk Road East, Hamilton, Ontario, L9A 2H6",
      "city": "Hamilton",
      "postal_code": "L9A 2H6",
      "phone": "905-388-3902",
      "email": "mohawk@lifemark.ca",
      "lat": 43.2232138,
      "lon": -79.8592888,
      "precision": "address"
    },
    {
      "name": "PT Health - Midland Physiotherapy",
      "category": "clinic",
      "facility_type": "Community Physiotherapy Clinic",
      "address": "1-375 William Street, Midland, Ontario, L4R 2S4",
      "city": "Midland",
      "postal_code": "L4R 2S4",
      "phone": "705-528-0044",
      "email": "midlandphysio@pthealth.ca",
      "lat": 44.7554352,
      "lon": -79.8745525,
      "precision": "address"
    },
    {
      "name": "Physiotherapy Rehabilitation Centre",
      "category": "clinic",
      "facility_type": "Community Physiotherapy Clinic",
      "address": "17 Vaughan Road, Welland, Ontario, L3B 5Z7",
      "city": "Welland",
      "postal_code": "L3B 5Z7",
      "phone": "905-788-1985",
      "email": "wellandphysio@gmail.com",
      "lat": 42.965053,
      "lon": -79.262847,
      "precision": "address"
    },
    {
      "name": "Physiotherapy Associates",
      "category": "clinic",
      "facility_type": "Community Physiotherapy Clinic",
      "address": "45/47 Laird Drive, Toronto, Ontario, M4H 1B6",
      "city": "Toronto",
      "postal_code": "M4H 1B6",
      "phone": "416-441-1222",
      "email": "wijern@sympatico.ca",
      "lat": 43.7094289,
      "lon": -79.3631643,
      "precision": "address"
    },
    {
      "name": "Lifemark Physiotherapy Hamilton Mountain",
      "category": "clinic",
      "facility_type": "Community Physiotherapy Clinic",
      "address": "520 Upper Sherman Avenue, Hamilton, Ontario, L8V 3L8",
      "city": "Hamilton",
      "postal_code": "L8V 3L8",
      "phone": "905-389-0143",
      "email": "mountainrehab@pthealth.ca",
      "lat": 43.2325015,
      "lon": -79.8473056,
      "precision": "address"
    },
    {
      "name": "LifeMark Physiotherapy - Scarborough",
      "category": "clinic",
      "facility_type": "Community Physiotherapy Clinic",
      "address": "3481 Kingston Road, Scarborough, Ontario, M1M 1R4",
      "city": "Scarborough",
      "postal_code": "M1M 1R4",
      "phone": "416-266-8844",
      "email": "scarborough@lifemark.ca",
      "lat": 43.7382344,
      "lon": -79.2172719,
      "precision": "address"
    },
    {
      "name": "Community Physiotherapy Clinic",
      "category": "clinic",
      "facility_type": "Community Physiotherapy Clinic",
      "address": "1308 Queen Street East, Unit 1, Toronto, Ontario, M4L 1C5",
      "city": "Toronto",
      "postal_code": "M4L 1C5",
      "phone": "416-465-2401",
      "email": "commphysio@bellnet.ca",
      "lat": 43.6639393,
      "lon": -79.3277577,
      "precision": "address"
    },
    {
      "name": "Willowdale Physiotherapy Clinic",
      "category": "clinic",
      "facility_type": "Community Physiotherapy Clinic",
      "address": "225-6228 Yonge Street, North York, Ontario, M2M 3X4",
      "city": "North York",
      "postal_code": "M2M 3X4",
      "phone": "416-226-2402",
      "email": "willowdale_clinic@rogers.com",
      "lat": 43.79585,
      "lon": -79.42165,
      "precision": "address"
    },
    {
      "name": "Stouffville Physiotherapy Clinic",
      "category": "clinic",
      "facility_type": "Community Physiotherapy Clinic",
      "address": "103-37 Sandiford Drive, Stouffville, Ontario, L4A 3Z2",
      "city": "Stouffville",
      "postal_code": "L4A 3Z2",
      "phone": "905-640-1818",
      "email": "info@stouffvillephysio.net",
      "lat": 43.96211,
      "lon": -79.2692585,
      "precision": "address"
    },
    {
      "name": "Kings Professional Physiotherapy Clinic",
      "category": "clinic",
      "facility_type": "Community Physiotherapy Clinic",
      "address": "1206 King Street West, Toronto, Ontario, M6K 1G4",
      "city": "Toronto",
      "postal_code": "M6K 1G4",
      "phone": "416-588-9377",
      "email": "admin@kingsphysio.ca",
      "lat": 43.6389918,
      "lon": -79.4277332,
      "precision": "address"
    },
    {
      "name": "Humber Physiotherapy Services",
      "category": "clinic",
      "facility_type": "Community Physiotherapy Clinic",
      "address": "106-1436 Royal York Road, Etobicoke, Ontario, M9P 3A9",
      "city": "Etobicoke",
      "postal_code": "M9P 3A9",
      "phone": "416-245-4155",
      "email": "humberphysiotherapy@hotmail.com",
      "lat": 43.6854828,
      "lon": -79.528454,
      "precision": "address"
    },
    {
      "name": "Bluewater Physiotherapy Clinic",
      "category": "clinic",
      "facility_type": "Community Physiotherapy Clinic",
      "address": "145 Saddler Street East, Box 1180, Durham, Ontario, N0G 1R0",
      "city": "Durham",
      "postal_code": "N0G 1R0",
      "phone": "519-369-2334",
      "email": "blueh2o2334@eastlink.ca",
      "lat": 44.1743381,
      "lon": -80.8171615,
      "precision": "address"
    },
    {
      "name": "Advanced Rehabilitation Centres",
      "category": "clinic",
      "facility_type": "Community Physiotherapy Clinic",
      "address": "202-2425 Tecumseh Road East, Windsor, Ontario, N8W 1E6",
      "city": "Windsor",
      "postal_code": "N8W 1E6",
      "phone": "519-254-2222",
      "email": "info@advancedrehab.ca",
      "lat": 42.2978911,
      "lon": -83.0180237,
      "precision": "address"
    },
    {
      "name": "Scott Physiotherapy Clinic",
      "category": "clinic",
      "facility_type": "Community Physiotherapy Clinic",
      "address": "35 Morrell Street, Brantford, Ontario, N3T 4J3",
      "city": "Brantford",
      "postal_code": "N3T 4J3",
      "phone": "519-759-2155",
      "email": "scottphysioclinic@gmail.com",
      "lat": 43.1421916,
      "lon": -80.2898106,
      "precision": "address"
    },
    {
      "name": "CBI Health Centre-Brantford West",
      "category": "clinic",
      "facility_type": "Community Physiotherapy Clinic",
      "address": "325 West Street, Suite 300, Building A, Brantford, Ontario, N3R 3V6",
      "city": "Brantford",
      "postal_code": "N3R 3V6",
      "phone": "519-756-5450",
      "email": "brantford@cbi.ca",
      "lat": 43.1537892,
      "lon": -80.2590999,
      "precision": "address"
    },
    {
      "name": "LifeMark Physiotherapy - Woodbridge",
      "category": "clinic",
      "facility_type": "Community Physiotherapy Clinic",
      "address": "100-4500 Highway 7, Woodbridge, Ontario, L4L 4Y7",
      "city": "Woodbridge",
      "postal_code": "L4L 4Y7",
      "phone": "905-856-3777",
      "email": "woodbridge@lifemark.ca",
      "lat": 43.7842545,
      "lon": -79.5738124,
      "precision": "address"
    },
    {
      "name": "Lifemark Physiotherapy Carlingwood Mall",
      "category": "clinic",
      "facility_type": "Community Physiotherapy Clinic",
      "address": "12-2121 Carling Avenue, Entrance 6, Ottawa, Ontario, K2A 1H2",
      "city": "Ottawa",
      "postal_code": "K2A 1H2",
      "phone": "613-721-2120",
      "email": "Ottawa.carlingwood@lifemark.ca",
      "lat": 45.3734096,
      "lon": -75.7675924,
      "precision": "address"
    },
    {
      "name": "St. George Physiotherapy Clinic",
      "category": "clinic",
      "facility_type": "Community Physiotherapy Clinic",
      "address": "1202-180 Bloor Street West, Toronto, Ontario, M5S 2V6",
      "city": "Toronto",
      "postal_code": "M5S 2V6",
      "phone": "416-921-4587",
      "email": "info@stgeorgephysio.ca",
      "lat": 43.6688559,
      "lon": -79.3949723,
      "precision": "address"
    },
    {
      "name": "Novo Healthnet Limited",
      "category": "clinic",
      "facility_type": "Community Physiotherapy Clinic",
      "address": "8 Glen Watford Dr G3-G5, Scarborough, Ontario, M1S 2C1",
      "city": "Scarborough",
      "postal_code": "M1S 2C1",
      "phone": "416-298-0474",
      "email": "scarborough@novohealthnet.com",
      "lat": 43.7872125,
      "lon": -79.2766394,
      "precision": "address"
    },
    {
      "name": "Windsor Physiotherapy Services",
      "category": "clinic",
      "facility_type": "Community Physiotherapy Clinic",
      "address": "13278 Tecumseh Road East, Suite 200, Tecumseh, Ontario, N8N 3T6",
      "city": "Tecumseh",
      "postal_code": "N8N 3T6",
      "phone": "519-735-2152",
      "email": "info@advancedrehab.ca",
      "lat": 42.3116951,
      "lon": -82.8917415,
      "precision": "address"
    },
    {
      "name": "PT Health - Four Seasons Physiotherapy",
      "category": "clinic",
      "facility_type": "Community Physiotherapy Clinic",
      "address": "203-16 Four Seasons Place, Etobicoke, Ontario, M9B 6E5",
      "city": "Etobicoke",
      "postal_code": "M9B 6E5",
      "phone": "416-628-9874",
      "email": "fourseasonsphysio@pthealth.ca",
      "lat": 43.6478453,
      "lon": -79.5607368,
      "precision": "address"
    },
    {
      "name": "Central Park Physiotherapy Centre",
      "category": "clinic",
      "facility_type": "Community Physiotherapy Clinic",
      "address": "455 Simcoe Steet South, Oshawa, Ontario, L1H 4J7",
      "city": "Oshawa",
      "postal_code": "L1H 4J7",
      "phone": "905-725-4241",
      "email": "centralparkphysio@bellnet.ca",
      "lat": 43.8975558,
      "lon": -78.8635324,
      "precision": "city"
    },
    {
      "name": "Canadian Physiotherapy Centre",
      "category": "clinic",
      "facility_type": "Community Physiotherapy Clinic",
      "address": "2967 Sheppard Avenue East, Scarborough, Ontario, M1T 3J5",
      "city": "Scarborough",
      "postal_code": "M1T 3J5",
      "phone": "416-493-3044",
      "email": "cdnphysio@bellnet.ca",
      "lat": 43.77575,
      "lon": -79.31953,
      "precision": "address"
    },
    {
      "name": "North East Physiotherapy",
      "category": "clinic",
      "facility_type": "Community Physiotherapy Clinic",
      "address": "137 Willowdale Avenue, Toronto, Ontario, M2N 4Y3",
      "city": "Toronto",
      "postal_code": "M2N 4Y3",
      "phone": "416-221-3455",
      "email": "northeastphysiotherapyinc@bellnet.ca",
      "lat": 43.7654991,
      "lon": -79.4001335,
      "precision": "address"
    },
    {
      "name": "LifeMark Physiotherapy - Toronto Bathurst",
      "category": "clinic",
      "facility_type": "Community Physiotherapy Clinic",
      "address": "6-1500 Bathurst Street, Toronto, Ontario, M5P 3L3",
      "city": "Toronto",
      "postal_code": "M5P 3L3",
      "phone": "416-651-0824",
      "email": "bathurst@lifemark.ca",
      "lat": 43.6842306,
      "lon": -79.4190539,
      "precision": "address"
    },
    {
      "name": "Quinte Physiotherapy Clinic",
      "category": "clinic",
      "facility_type": "Community Physiotherapy Clinic",
      "address": "77 College Street West, Belleville, Ontario, K8P 2G3",
      "city": "Belleville",
      "postal_code": "K8P 2G3",
      "phone": "613-962-9999",
      "email": "info@quintephysiotherapy.ca",
      "lat": 44.1755287,
      "lon": -77.3954032,
      "precision": "address"
    },
    {
      "name": "Durham Physiotherapy Clinic",
      "category": "clinic",
      "facility_type": "Community Physiotherapy Clinic",
      "address": "105-420 Green St, Whitby, Ontario, L1N 8R1",
      "city": "Whitby",
      "postal_code": "L1N 8R1",
      "phone": "905-725-8359",
      "email": "durhamphysio@gmail.com",
      "lat": 43.8767404,
      "lon": -78.9396282,
      "precision": "address"
    },
    {
      "name": "PT Health - Main and Gerrard Physiotherapy",
      "category": "clinic",
      "facility_type": "Community Physiotherapy Clinic",
      "address": "192 Main Street, Toronto, Ontario, M4E 2W1",
      "city": "Toronto",
      "postal_code": "M4E 2W1",
      "phone": "647-498-5664",
      "email": "mgpt@pthealth.ca",
      "lat": 43.68446,
      "lon": -79.30067,
      "precision": "address"
    },
    {
      "name": "PT Health - North Brampton Physiotherapy",
      "category": "clinic",
      "facility_type": "Community Physiotherapy Clinic",
      "address": "306-36 Vodden Street, Brampton, Ontario, L6V 4H4",
      "city": "Brampton",
      "postal_code": "L6V 4H4",
      "phone": "289-948-0887",
      "email": "northbramptonphysio@pthealth.ca",
      "lat": 43.6964849,
      "lon": -79.7656384,
      "precision": "address"
    },
    {
      "name": "PT Health - Barrie Physiotherapy",
      "category": "clinic",
      "facility_type": "Community Physiotherapy Clinic",
      "address": "106-15 Gallie Court, Barrie, Ontario, L4M 7G1",
      "city": "Barrie",
      "postal_code": "L4M 7G1",
      "phone": "705-302-9842",
      "email": "barriephysio@pthealth.ca",
      "lat": 44.4160857,
      "lon": -79.65905,
      "precision": "address"
    },
    {
      "name": "London Physical Therapy Clinic",
      "category": "clinic",
      "facility_type": "Community Physiotherapy Clinic",
      "address": "455-1105 Wellington Rd., London, Ontario, N6E 1V4",
      "city": "London",
      "postal_code": "N6E 1V4",
      "phone": "519-433-6713",
      "email": "info@londonphysicaltherapyclinic.com",
      "lat": 42.931224,
      "lon": -81.2263149,
      "precision": "address"
    },
    {
      "name": "Lifemark Physiotherapy North Bramalea",
      "category": "clinic",
      "facility_type": "Community Physiotherapy Clinic",
      "address": "302-9780 Bramalea Road, Brampton, Ontario, L6S 2P1",
      "city": "Brampton",
      "postal_code": "L6S 2P1",
      "phone": "905-790-1269",
      "email": "northbramalea@lifemark.ca",
      "lat": 43.7382509,
      "lon": -79.7367131,
      "precision": "address"
    },
    {
      "name": "PT Health - Flamborough Physiotherapy",
      "category": "clinic",
      "facility_type": "Community Physiotherapy Clinic",
      "address": "5-80 Hamilton Street North, Waterdown, Ontario, L8B 0G8",
      "city": "Waterdown",
      "postal_code": "L8B 0G8",
      "phone": "289-619-1995",
      "email": "flamboroughphysio@pthealth.ca",
      "lat": 43.337282,
      "lon": -79.904314,
      "precision": "address"
    },
    {
      "name": "Scarborough North Physiotherapy Clinic",
      "category": "clinic",
      "facility_type": "Community Physiotherapy Clinic",
      "address": "407-3443 Finch Avenue East, Scarborough, Ontario, M1W 2S1",
      "city": "Scarborough",
      "postal_code": "M1W 2S1",
      "phone": "416-499-6635",
      "email": "admin@scarboroughnorthphysiotherapy.com",
      "lat": 43.7971125,
      "lon": -79.3126345,
      "precision": "address"
    },
    {
      "name": "PT Health - Cornwall Physiotherapy",
      "category": "clinic",
      "facility_type": "Community Physiotherapy Clinic",
      "address": "17373 South Branch Road, Cornwall, Ontario, K6K 1T3",
      "city": "Cornwall",
      "postal_code": "K6K 1T3",
      "phone": "613-209-3267",
      "email": "cornwallphysio@pthealth.ca",
      "lat": 45.0631179,
      "lon": -74.7640309,
      "precision": "address"
    },
    {
      "name": "Promed Physiotherapy & Rehabilitation Centre",
      "category": "clinic",
      "facility_type": "Community Physiotherapy Clinic",
      "address": "119-1315 Finch Avenue West, North York, Ontario, M3J 2G6",
      "city": "North York",
      "postal_code": "M3J 2G6",
      "phone": "416-638-7744",
      "email": "dspromedphysio@yahoo.com",
      "lat": 43.76353,
      "lon": -79.48923,
      "precision": "address"
    },
    {
      "name": "Lifemark Physiotherapy Central Scarborough",
      "category": "clinic",
      "facility_type": "Community Physiotherapy Clinic",
      "address": "14-2155 Lawrence Avenue East, Scarborough, Ontario, M1R 5G9",
      "city": "Scarborough",
      "postal_code": "M1R 5G9",
      "phone": "416-755-0879",
      "email": "centralscarborough@lifemark.ca",
      "lat": 43.7468835,
      "lon": -79.2853178,
      "precision": "address"
    },
    {
      "name": "Grand River Physiotherapy",
      "category": "clinic",
      "facility_type": "Community Physiotherapy Clinic",
      "address": "1-39 Grand Avenue North, Cambridge, Ontario, N1S 2K7",
      "city": "Cambridge",
      "postal_code": "N1S 2K7",
      "phone": "519-621-3265",
      "email": "grandriverphysio@yahoo.com",
      "lat": 43.3589713,
      "lon": -80.317553,
      "precision": "address"
    },
    {
      "name": "PT Health - Sarnia Physiotherapy",
      "category": "clinic",
      "facility_type": "Community Physiotherapy Clinic",
      "address": "3-460 Christina Street North, Sarnia, Ontario, N7T 5W4",
      "city": "Sarnia",
      "postal_code": "N7T 5W4",
      "phone": "226-778-2450",
      "email": "sarniacomm@pthealth.ca",
      "lat": 42.977842,
      "lon": -82.4045083,
      "precision": "address"
    },
    {
      "name": "Uptown Physiotherapy Clinic",
      "category": "clinic",
      "facility_type": "Community Physiotherapy Clinic",
      "address": "960 Tecumseh Road East, Windsor, Ontario, N8X 2S6",
      "city": "Windsor",
      "postal_code": "N8X 2S6",
      "phone": "519-252-2752",
      "email": "uptown.physiotherapy@gmail.com",
      "lat": 42.2981463,
      "lon": -83.0162724,
      "precision": "address"
    },
    {
      "name": "Lifemark Dufferin & Castlefield",
      "category": "clinic",
      "facility_type": "Community Physiotherapy Clinic",
      "address": "3-2700 Dufferin Street, Toronto, Ontario, M6B 4J3",
      "city": "Toronto",
      "postal_code": "M6B 4J3",
      "phone": "416-785-1165",
      "email": "dufferin.rehab@lifemark.ca",
      "lat": 43.7012922,
      "lon": -79.4524243,
      "precision": "address"
    },
    {
      "name": "Shelton Physiotherapy Associates",
      "category": "clinic",
      "facility_type": "Community Physiotherapy Clinic",
      "address": "2240 Eglinton Avenue West, Toronto, Ontario, M6E 2L3",
      "city": "Toronto",
      "postal_code": "M6E 2L3",
      "phone": "416-651-1722",
      "email": "sheltonphysio@bellnet.ca",
      "lat": 43.69314,
      "lon": -79.46247,
      "precision": "address"
    },
    {
      "name": "Physical Therapy Services",
      "category": "clinic",
      "facility_type": "Community Physiotherapy Clinic",
      "address": "109-484 Church Street, Toronto, Ontario, M4Y 2C7",
      "city": "Toronto",
      "postal_code": "M4Y 2C7",
      "phone": "416-923-8577",
      "email": "ptservicestoronto@gmail.com",
      "lat": 43.6665626,
      "lon": -79.3814392,
      "precision": "address"
    },
    {
      "name": "West End Physiotherapy Clinic",
      "category": "clinic",
      "facility_type": "Community Physiotherapy Clinic",
      "address": "10 Ewen Road, Hamilton, Ontario, L8S 3C4",
      "city": "Hamilton",
      "postal_code": "L8S 3C4",
      "phone": "905-524-2365",
      "email": "hamiltonewen@cbi.ca",
      "lat": 43.2572067,
      "lon": -79.9322029,
      "precision": "address"
    },
    {
      "name": "Focus Physiotherapy (Bolton) Inc.",
      "category": "clinic",
      "facility_type": "Community Physiotherapy Clinic",
      "address": "207-170 McEwan Drive, Bolton, Ontario, L7E 4C8",
      "city": "Bolton",
      "postal_code": "L7E 4C8",
      "phone": "905-857-4999",
      "email": "info@focusphysiotherapy.com",
      "lat": 43.8617074,
      "lon": -79.7125676,
      "precision": "address"
    },
    {
      "name": "In-Form Physiotherapy & Rehabilitation Centre",
      "category": "clinic",
      "facility_type": "Community Physiotherapy Clinic",
      "address": "3-8348 Islington Avenue, Woodbridge, Ontario, L4L 1W8",
      "city": "Woodbridge",
      "postal_code": "L4L 1W8",
      "phone": "905-851-1400",
      "email": "informphysio12@gmail.com",
      "lat": 43.7968903,
      "lon": -79.5848658,
      "precision": "address"
    },
    {
      "name": "Focus Physiotherapy (Brampton) Inc.",
      "category": "clinic",
      "facility_type": "Community Physiotherapy Clinic",
      "address": "12A-10035 Hurontario Street, Brampton, Ontario, L6Z 0E6",
      "city": "Brampton",
      "postal_code": "L6Z 0E6",
      "phone": "905-457-7958",
      "email": "info@focusphysiotherapy.com",
      "lat": 43.7067048,
      "lon": -79.7871413,
      "precision": "address"
    },
    {
      "name": "New Motion Physio and Sports Rehab",
      "category": "clinic",
      "facility_type": "Community Physiotherapy Clinic",
      "address": "2-125 Father Tobin Road, Brampton, Ontario, L6R 0W9",
      "city": "Brampton",
      "postal_code": "L6R 0W9",
      "phone": "905-792-9024",
      "email": "physioadvise@yahoo.ca",
      "lat": 43.769971,
      "lon": -79.7577456,
      "precision": "address"
    },
    {
      "name": "Goreway Physiotherapy and Rehabilitation Centre Inc.",
      "category": "clinic",
      "facility_type": "Community Physiotherapy Clinic",
      "address": "20-7330 Goreway Drive, Mississauga, Ontario, L4T 4J2",
      "city": "Mississauga",
      "postal_code": "L4T 4J2",
      "phone": "905-612-8222",
      "email": "info@gorewayphysiotherapy.com",
      "lat": 43.7203496,
      "lon": -79.6411591,
      "precision": "address"
    },
    {
      "name": "Barraco Physiotherapy and Wellness",
      "category": "clinic",
      "facility_type": "Community Physiotherapy Clinic",
      "address": "204 Talbot Street West, Leamington, Ontario, N8H 1P1",
      "city": "Leamington",
      "postal_code": "N8H 1P1",
      "phone": "519-322-5588",
      "email": "info@barracophysiotherapy.com",
      "lat": 42.0492365,
      "lon": -82.6151473,
      "precision": "address"
    },
    {
      "name": "Chatham Physiotherapy Clinic",
      "category": "clinic",
      "facility_type": "Community Physiotherapy Clinic",
      "address": "20 Emma Street, Building B, Chatham, Ontario, N5L 5K5",
      "city": "Chatham",
      "postal_code": "N5L 5K5",
      "phone": "519-351-9100",
      "email": "chathamphysio@careinstitute.ca",
      "lat": 42.4066102,
      "lon": -82.1907565,
      "precision": "address"
    },
    {
      "name": "PT Health - Chatham Physiotherapy",
      "category": "clinic",
      "facility_type": "Community Physiotherapy Clinic",
      "address": "372A Lacroix Street, Chatham, Ontario, N7M 2W3",
      "city": "Chatham",
      "postal_code": "N7M 2W3",
      "phone": "226-798-0418",
      "email": "chathamphysio@pthealth.ca",
      "lat": 42.3900672,
      "lon": -82.1790413,
      "precision": "address"
    },
    {
      "name": "Talbot Trail Physiotherapy Blenheim",
      "category": "clinic",
      "facility_type": "Community Physiotherapy Clinic",
      "address": "110 Talbot Street West, Blenheim, Ontario, N0P 1A0",
      "city": "Blenheim",
      "postal_code": "N0P 1A0",
      "phone": "519-676-1192",
      "email": "Blenheim@TalbotTrailPT.ca",
      "lat": 42.3329074,
      "lon": -81.9992894,
      "precision": "address"
    },
    {
      "name": "PT Health - Petrolia Physiotherapy",
      "category": "clinic",
      "facility_type": "Community Physiotherapy Clinic",
      "address": "3-4119 Petrolia Line, Petrolia, Ontario, N0N 1R0",
      "city": "Petrolia",
      "postal_code": "N0N 1R0",
      "phone": "226-778-2449",
      "email": "petroliarehab@pthealth.ca",
      "lat": 42.8819025,
      "lon": -82.1517895,
      "precision": "address"
    },
    {
      "name": "Active Care Physiotherapy Inc.",
      "category": "clinic",
      "facility_type": "Community Physiotherapy Clinic",
      "address": "29 Noxon Street, Ingersoll, Ontario, N5C 1B8",
      "city": "Ingersoll",
      "postal_code": "N5C 1B8",
      "phone": "519-485-4444",
      "email": "Ingersoll@acphysio.ca",
      "lat": 43.0317196,
      "lon": -80.8759392,
      "precision": "address"
    },
    {
      "name": "Closing the Gap Healthcare",
      "category": "clinic",
      "facility_type": "Community Physiotherapy Clinic",
      "address": "1450 1st Ave W, Owen Sound, Ontario, N4K 6W2",
      "city": "Owen Sound",
      "postal_code": "N4K 6W2",
      "phone": "519-370-2165",
      "email": "owensound.clinic@closingthegap.ca",
      "lat": 44.5770741,
      "lon": -80.9452061,
      "precision": "address"
    },
    {
      "name": "CBI Health Centre-London Dundas E",
      "category": "clinic",
      "facility_type": "Community Physiotherapy Clinic",
      "address": "1657 Dundas Street East, London, Ontario, N5W 3C6",
      "city": "London",
      "postal_code": "N5W 3C6",
      "phone": "519-457-2171",
      "email": "londoneast@cbi.ca",
      "lat": 42.9836747,
      "lon": -81.2496068,
      "precision": "city"
    },
    {
      "name": "Closing the Gap Healthcare Group - St. Thomas",
      "category": "clinic",
      "facility_type": "Community Physiotherapy Clinic",
      "address": "116-10 Mondamin Street, St. Thomas, Ontario, N5P 2V1",
      "city": "St. Thomas",
      "postal_code": "N5P 2V1",
      "phone": "519-631-9866",
      "email": "elgin.clinic@closingthegap.ca",
      "lat": 42.7798577,
      "lon": -81.1930447,
      "precision": "address"
    },
    {
      "name": "Shyft The Physiotherapy Group",
      "category": "clinic",
      "facility_type": "Community Physiotherapy Clinic",
      "address": "E-310 Wellington Road South, London, Ontario, N6C 4P4",
      "city": "London",
      "postal_code": "N6C 4P4",
      "phone": "519-439-6111",
      "email": "info@shyftphysio.com",
      "lat": 42.9074367,
      "lon": -81.206584,
      "precision": "address"
    },
    {
      "name": "LifeMark Physiotherapy - Four Corners",
      "category": "clinic",
      "facility_type": "Community Physiotherapy Clinic",
      "address": "202-2009 Long Lake Road, Sudbury, Ontario, P3E 6C3",
      "city": "Sudbury",
      "postal_code": "P3E 6C3",
      "phone": "705-523-1656",
      "email": "fourcorners@lifemark.ca",
      "lat": 46.4510007,
      "lon": -81.0031769,
      "precision": "address"
    },
    {
      "name": "LifeMark Physiotherapy - Lasalle",
      "category": "clinic",
      "facility_type": "Community Physiotherapy Clinic",
      "address": "205-1122 Lasalle Boulevard, Sudbury, Ontario, P3E 1Y4",
      "city": "Sudbury",
      "postal_code": "P3E 1Y4",
      "phone": "705-560-8125",
      "email": "lasalle@lifemark.ca",
      "lat": 46.52237,
      "lon": -80.9538758,
      "precision": "address"
    },
    {
      "name": "Quattro Health & Performance",
      "category": "clinic",
      "facility_type": "Community Physiotherapy Clinic",
      "address": "267 Fanshawe Park Road West, London, Ontario, N6G 5A9",
      "city": "London",
      "postal_code": "N6G 5A9",
      "phone": "519-473-2929",
      "email": "yourhealthmedicalandrehab@gmail.com",
      "lat": 43.0222558,
      "lon": -81.2979938,
      "precision": "address"
    },
    {
      "name": "Rehab Plus Rehabilitation & Fitness Centre",
      "category": "clinic",
      "facility_type": "Community Physiotherapy Clinic",
      "address": "181 Dale Avenue, Timmins, Ontario, P4N 1M3",
      "city": "Timmins",
      "postal_code": "P4N 1M3",
      "phone": "705-264-4050",
      "email": "info@rehab.plus",
      "lat": 48.4683571,
      "lon": -81.3300346,
      "precision": "address"
    },
    {
      "name": "Russett Rehabilitation",
      "category": "clinic",
      "facility_type": "Community Physiotherapy Clinic",
      "address": "26 Thames Road East, Exeter, Ontario, N0M 1S3",
      "city": "Exeter",
      "postal_code": "N0M 1S3",
      "phone": "519-235-4892",
      "email": "russettrehab@gmail.com",
      "lat": 43.3620125,
      "lon": -81.4824575,
      "precision": "address"
    },
    {
      "name": "Symetrics",
      "category": "clinic",
      "facility_type": "Community Physiotherapy Clinic",
      "address": "510 Main Street East, North Bay, Ontario, P1B 1B8",
      "city": "North Bay",
      "postal_code": "P1B 1B8",
      "phone": "705-497-1975",
      "email": "dir@symetricsonline.com",
      "lat": 46.3084078,
      "lon": -79.4622518,
      "precision": "address"
    },
    {
      "name": "Timmins Physiotherapy",
      "category": "clinic",
      "facility_type": "Community Physiotherapy Clinic",
      "address": "18 Pine Street South, Timmins, Ontario, P4N 2J8",
      "city": "Timmins",
      "postal_code": "P4N 2J8",
      "phone": "705-262-1357",
      "email": "timminsphysiotherapy@gmail.com",
      "lat": 48.4756924,
      "lon": -81.3282029,
      "precision": "address"
    },
    {
      "name": "Closing the Gap Healthcare Group - Barrie",
      "category": "clinic",
      "facility_type": "Community Physiotherapy Clinic",
      "address": "507-80 Bradford Street, Barrie, Ontario, L4N 6S7",
      "city": "Barrie",
      "postal_code": "L4N 6S7",
      "phone": "705-727-7888",
      "email": "barrie.clinic@closingthegap.ca",
      "lat": 44.383918,
      "lon": -79.6962149,
      "precision": "address"
    },
    {
      "name": "Closing the Gap Healthcare Group - Muskoka",
      "category": "clinic",
      "facility_type": "Community Physiotherapy Clinic",
      "address": "202-395 Centre Street North, Huntsville, Ontario, P1H 2P9",
      "city": "Huntsville",
      "postal_code": "P1H 2P9",
      "phone": "888-660-3959",
      "email": "musclinic@closingthegap.ca",
      "lat": 45.3320388,
      "lon": -79.2234375,
      "precision": "address"
    },
    {
      "name": "LifeMark Collingwood Sport Medicine & Rehabilitation Centre",
      "category": "clinic",
      "facility_type": "Community Physiotherapy Clinic",
      "address": "105-10 Keith Avenue, Collingwood, Ontario, L9Y 0W5",
      "city": "Collingwood",
      "postal_code": "L9Y 0W5",
      "phone": "705-444-5303",
      "email": "collingwood.sportmedicine@lifemark.ca",
      "lat": 44.5096003,
      "lon": -80.2408746,
      "precision": "address"
    },
    {
      "name": "Fairway Physiotherapy & Sports Injury Clinic",
      "category": "clinic",
      "facility_type": "Community Physiotherapy Clinic",
      "address": "4-620 Arthur Street West, Thunder Bay, Ontario, P7E 5R8",
      "city": "Thunder Bay",
      "postal_code": "P7E 5R8",
      "phone": "807-344-5242",
      "email": "reception@fairwayphysio.ca",
      "lat": 48.3808938,
      "lon": -89.2990271,
      "precision": "address"
    },
    {
      "name": "Physiotherapy Alliance",
      "category": "clinic",
      "facility_type": "Community Physiotherapy Clinic",
      "address": "1- 10 Waterloo Street, New Hamburg, Ontario, N3A 1V5",
      "city": "New Hamburg",
      "postal_code": "N3A 1V5",
      "phone": "519-662-4676",
      "email": "newhamburg@physiotherapyalliance.com",
      "lat": 43.3890087,
      "lon": -80.710482,
      "precision": "address"
    },
    {
      "name": "Lifemark Physiotherapy",
      "category": "clinic",
      "facility_type": "Community Physiotherapy Clinic",
      "address": "649 Scottsdale Drive, Lower Level 1, Guelph, Ontario, N1G 4T7",
      "city": "Guelph",
      "postal_code": "N1G 4T7",
      "phone": "519-763-2885",
      "email": "southcity@lifemark.ca",
      "lat": 43.514124,
      "lon": -80.237582,
      "precision": "address"
    },
    {
      "name": "South Coast Physiotherapy",
      "category": "clinic",
      "facility_type": "Community Physiotherapy Clinic",
      "address": "305-216 West Street, Simcoe, Ontario, N3Y 1S8",
      "city": "Simcoe",
      "postal_code": "N3Y 1S8",
      "phone": "519-428-1234",
      "email": "info@southcoastphysiotherapy.ca",
      "lat": 42.8350625,
      "lon": -80.3108332,
      "precision": "address"
    },
    {
      "name": "Lifemark Physiotherapy Burlington Advance",
      "category": "clinic",
      "facility_type": "Community Physiotherapy Clinic",
      "address": "1 & 2-1450 Headon Road, Burlington, Ontario, L7M 3Z5",
      "city": "Burlington",
      "postal_code": "L7M 3Z5",
      "phone": "905-315-7156",
      "email": "advance@lifemark.ca",
      "lat": 43.3736284,
      "lon": -79.8105246,
      "precision": "address"
    },
    {
      "name": "PT Health - Dunnville Physiotherapy",
      "category": "clinic",
      "facility_type": "Community Physiotherapy Clinic",
      "address": "420 Lock Street West, Dunnville, Ontario, N1A 1V6",
      "city": "Dunnville",
      "postal_code": "N1A 1V6",
      "phone": "289-768-3687",
      "email": "dunnvillephysio@pthealth.ca",
      "lat": 42.9045265,
      "lon": -79.6241985,
      "precision": "address"
    },
    {
      "name": "Haldimand Physiotherapy Centre",
      "category": "clinic",
      "facility_type": "Community Physiotherapy Clinic",
      "address": "102-146 Forfar Street West, Caledonia, Ontario, N3W 1J3",
      "city": "Caledonia",
      "postal_code": "N3W 1J3",
      "phone": "905-765-5449",
      "email": "ifeelgood@haldimandphysio.ca",
      "lat": 43.0737943,
      "lon": -79.9519084,
      "precision": "city"
    },
    {
      "name": "Kneaded Care Inc.",
      "category": "clinic",
      "facility_type": "Community Physiotherapy Clinic",
      "address": "102-174 Stanley Street, Brantford, Ontario, N3S 7S3",
      "city": "Brantford",
      "postal_code": "N3S 7S3",
      "phone": "519-757-1869",
      "email": "heal@kneadedcare.com",
      "lat": 43.1489591,
      "lon": -80.2424797,
      "precision": "address"
    },
    {
      "name": "LifeMark Physiotherapy - Fonthill",
      "category": "clinic",
      "facility_type": "Community Physiotherapy Clinic",
      "address": "6-209 Highway #20 East, Fonthill, Ontario, L0S 1E6",
      "city": "Fonthill",
      "postal_code": "L0S 1E6",
      "phone": "905-892-4431",
      "email": "fonthill@lifemark.ca",
      "lat": 43.0307817,
      "lon": -79.2859628,
      "precision": "city"
    },
    {
      "name": "Niagara Physiotherapy and Sport Clinic",
      "category": "clinic",
      "facility_type": "Community Physiotherapy Clinic",
      "address": "1517 Niagara Stone Road, Hwy 55\nPO Box 794, Virgil, Ontario, L0S 1T0",
      "city": "Virgil",
      "postal_code": "L0S 1T0",
      "phone": "905-468-7979",
      "email": "niagara.physiotherapy@gmail.com",
      "lat": 43.2222252,
      "lon": -79.1216301,
      "precision": "address"
    },
    {
      "name": "The Clinic on Elm",
      "category": "clinic",
      "facility_type": "Community Physiotherapy Clinic",
      "address": "380 Elm Street, Port Colborne, Ontario, L3K 4P2",
      "city": "Port Colborne",
      "postal_code": "L3K 4P2",
      "phone": "905-834-5551",
      "email": "reception@thecliniconelm.ca",
      "lat": 42.8894926,
      "lon": -79.254975,
      "precision": "address"
    },
    {
      "name": "Perth Physiotherapy & Wellness Centre",
      "category": "clinic",
      "facility_type": "Community Physiotherapy Clinic",
      "address": "1861 Rogers Road, Perth, Ontario, K7H 0B2",
      "city": "Perth",
      "postal_code": "K7H 0B2",
      "phone": "613-267-6789",
      "email": "info@perthphysiotherapy.ca",
      "lat": 44.8923489,
      "lon": -76.2497379,
      "precision": "address"
    },
    {
      "name": "RehabWell Physiotherapy",
      "category": "clinic",
      "facility_type": "Community Physiotherapy Clinic",
      "address": "1-2779 Rutledge Road, Sydenham, Ontario, K0H 2T0",
      "city": "Sydenham",
      "postal_code": "K0H 2T0",
      "phone": "613-372-1986",
      "email": "admin@rehabwell.ca",
      "lat": 44.4072072,
      "lon": -76.5871913,
      "precision": "address"
    },
    {
      "name": "LifeMark Blackburn & Taylor Kidd",
      "category": "clinic",
      "facility_type": "Community Physiotherapy Clinic",
      "address": "12-790 Blackburn Mews, Kingston, Ontario, K7P 2N6",
      "city": "Kingston",
      "postal_code": "K7P 2N6",
      "phone": "613-389-2350",
      "email": "kingstonphysio@lifemark.ca",
      "lat": 44.2511022,
      "lon": -76.5709653,
      "precision": "address"
    },
    {
      "name": "Physiotherapy Kingston and Spinal Rehab Centre",
      "category": "clinic",
      "facility_type": "Community Physiotherapy Clinic",
      "address": "7 - 1469 Princess Street, Kingston, Ontario, K7M 3E9",
      "city": "Kingston",
      "postal_code": "K7M 3E9",
      "phone": "613-547-6433",
      "email": "info@physiotherapykingston.ca",
      "lat": 44.2519995,
      "lon": -76.5338342,
      "precision": "address"
    },
    {
      "name": "Seaway Physiotherapy Centre",
      "category": "clinic",
      "facility_type": "Community Physiotherapy Clinic",
      "address": "102 Centre Street, Prescott, Ontario, K0E 1T0",
      "city": "Prescott",
      "postal_code": "K0E 1T0",
      "phone": "613-925-2220",
      "email": "seawayphysio@gmail.com",
      "lat": 44.7091885,
      "lon": -75.5141005,
      "precision": "address"
    },
    {
      "name": "LifeMark Physiotherapy - Val Caron",
      "category": "clinic",
      "facility_type": "Community Physiotherapy Clinic",
      "address": "110-2943 Highway 69 North, Val Caron, Ontario, P3N 1N3",
      "city": "Val Caron",
      "postal_code": "P3N 1N3",
      "phone": "705-897-3422",
      "email": "valcaron@lifemark.ca",
      "lat": 46.6080957,
      "lon": -81.0074712,
      "precision": "address"
    },
    {
      "name": "Lifemark Physiotherapy Downtown London",
      "category": "clinic",
      "facility_type": "Community Physiotherapy Clinic",
      "address": "382 Waterloo Street, London, Ontario, N6B 2N8",
      "city": "London",
      "postal_code": "N6B 2N8",
      "phone": "519-858-2931",
      "email": "downtownlondon@lifemark.ca",
      "lat": 42.9850637,
      "lon": -81.2413736,
      "precision": "address"
    },
    {
      "name": "Renew Physiotherapy",
      "category": "clinic",
      "facility_type": "Community Physiotherapy Clinic",
      "address": "221 Talbot Street West, Leamington, Ontario, N8H 1N8",
      "city": "Leamington",
      "postal_code": "N8H 1N8",
      "phone": "519-324-9233",
      "email": "admin@renewphysiotherapy.ca",
      "lat": 42.0495599,
      "lon": -82.6143817,
      "precision": "address"
    },
    {
      "name": "Madawaska Valley Physiotherapy",
      "category": "clinic",
      "facility_type": "Community Physiotherapy Clinic",
      "address": "21 St. Francis Memorial Drive, PO Box 841, Barry's Bay, Ontario, K0J 1B0",
      "city": "Barry's Bay",
      "postal_code": "K0J 1B0",
      "phone": "613-756-3000",
      "email": "rpeplinskie@yahoo.com",
      "lat": 45.4829245,
      "lon": -77.6938611,
      "precision": "address"
    },
    {
      "name": "MapleCare Physiotherapy Clinic",
      "category": "clinic",
      "facility_type": "Community Physiotherapy Clinic",
      "address": "48 Colonnade Road, Ottawa, Ontario, K2E 7J6",
      "city": "Ottawa",
      "postal_code": "K2E 7J6",
      "phone": "613-691-1515",
      "email": "info@maplecarephysiotherapy.com",
      "lat": 45.3443704,
      "lon": -75.716034,
      "precision": "address"
    },
    {
      "name": "Ottawa & District Physiotherapy Clinic",
      "category": "clinic",
      "facility_type": "Community Physiotherapy Clinic",
      "address": "1335 Carling Ave., Suite 300, Ottawa, Ontario, K2P 0Z8",
      "city": "Ottawa",
      "postal_code": "K2P 0Z8",
      "phone": "613-233-1235",
      "email": "ottawaphysiotherapy@gmail.com",
      "lat": 45.3857824,
      "lon": -75.7360608,
      "precision": "address"
    },
    {
      "name": "Physiothérapie Plantagenet Physiotherapy",
      "category": "clinic",
      "facility_type": "Community Physiotherapy Clinic",
      "address": "160 Jessup Falls, PO Box 302, Plantagenet, Ontario, K0B 1L0",
      "city": "Plantagenet",
      "postal_code": "K0B 1L0",
      "phone": "613-673-1977",
      "email": "info@physioplantagenet.com",
      "lat": 45.5402268,
      "lon": -74.9967284,
      "precision": "address"
    },
    {
      "name": "Pro Physio & Sport Medicine Centres Greenbank",
      "category": "clinic",
      "facility_type": "Community Physiotherapy Clinic",
      "address": "104-139 Greenbank Road, Ottawa, Ontario, K2H 9A5",
      "city": "Ottawa",
      "postal_code": "K2H 9A5",
      "phone": "613-596-1221",
      "email": "greenbank@prophysiotherapy.com",
      "lat": 45.3354282,
      "lon": -75.7848004,
      "precision": "address"
    },
    {
      "name": "Pro Physio & Sport Medicine Centres Bank",
      "category": "clinic",
      "facility_type": "Community Physiotherapy Clinic",
      "address": "1695 Bank Street, Ottawa, Ontario, K1V 7Z3",
      "city": "Ottawa",
      "postal_code": "K1V 7Z3",
      "phone": "613-521-0233",
      "email": "bank@prophysiotherapy.com",
      "lat": 45.375376,
      "lon": -75.6654674,
      "precision": "address"
    },
    {
      "name": "West Physio",
      "category": "clinic",
      "facility_type": "Community Physiotherapy Clinic",
      "address": "119 Langstaff Drive, Carp, Ontario, K0A 1L0",
      "city": "Carp",
      "postal_code": "K0A 1L0",
      "phone": "613-839-2619",
      "email": "info@westphysio.com",
      "lat": 45.3453569,
      "lon": -76.0320258,
      "precision": "address"
    },
    {
      "name": "Nova Care",
      "category": "clinic",
      "facility_type": "Community Physiotherapy Clinic",
      "address": "1600 Dease Street, Thunder Bay, Ontario, P7C 5H4",
      "city": "Thunder Bay",
      "postal_code": "P7C 5H4",
      "phone": "807-623-4720",
      "email": "novacare@novohealthnet.com",
      "lat": 48.3890505,
      "lon": -89.2400896,
      "precision": "address"
    },
    {
      "name": "Physiotherapy III Ltd.",
      "category": "clinic",
      "facility_type": "Community Physiotherapy Clinic",
      "address": "318383 Grey Rd 1, Owen Sound, Ontario, N4K 5N4",
      "city": "Owen Sound",
      "postal_code": "N4K 5N4",
      "phone": "519-372-1920",
      "email": "physio3@bmts.com",
      "lat": 44.5678105,
      "lon": -80.9430094,
      "precision": "city"
    },
    {
      "name": "Physiotherapy III Ltd. - Port Elgin",
      "category": "clinic",
      "facility_type": "Community Physiotherapy Clinic",
      "address": "553 Bricker Street, Port Elgin, Ontario, N0H 2C4",
      "city": "Port Elgin",
      "postal_code": "N0H 2C4",
      "phone": "519-389-3393",
      "email": "physio3@bmts.com",
      "lat": 44.4341159,
      "lon": -81.3886907,
      "precision": "address"
    },
    {
      "name": "Shyft The Physiotherapy Group",
      "category": "clinic",
      "facility_type": "Community Physiotherapy Clinic",
      "address": "22499 Jeffries Road, Komoka, Ontario, N0L 1R0",
      "city": "Komoka",
      "postal_code": "N0L 1R0",
      "phone": "519-433-9111",
      "email": "info@shyftphysio.com",
      "lat": 42.9452837,
      "lon": -81.4321521,
      "precision": "city"
    },
    {
      "name": "St. Catharines Physiotherapy Centre",
      "category": "clinic",
      "facility_type": "Community Physiotherapy Clinic",
      "address": "4A-145 Carlton Street, St. Catharines, Ontario, L2R 1R5",
      "city": "St. Catharines",
      "postal_code": "L2R 1R5",
      "phone": "905-685-4733",
      "email": "scpt@lifemark.ca",
      "lat": 43.1705084,
      "lon": -79.2550494,
      "precision": "address"
    },
    {
      "name": "PT Health - Stratford Physiotherapy",
      "category": "clinic",
      "facility_type": "Community Physiotherapy Clinic",
      "address": "104-444 Douro Street, Stratford, Ontario, N5A 0E6",
      "city": "Stratford",
      "postal_code": "N5A 0E6",
      "phone": "226-779-2671",
      "email": "stratfordphysio@pthealth.ca",
      "lat": 43.367005,
      "lon": -80.9580132,
      "precision": "address"
    },
    {
      "name": "Fortius Physiotherapy and Wellness Niagara",
      "category": "clinic",
      "facility_type": "Community Physiotherapy Clinic",
      "address": "1 & 2-3930 Montrose Road, Niagara Falls, Ontario, L2H 3C9",
      "city": "Niagara Falls",
      "postal_code": "L2H 3C9",
      "phone": "289-296-9887",
      "email": "infoniagara@fortius.ca",
      "lat": 43.115812,
      "lon": -79.1231381,
      "precision": "address"
    },
    {
      "name": "Hawkesbury Therapy",
      "category": "clinic",
      "facility_type": "Community Physiotherapy Clinic",
      "address": "208-1062 Ghislain Street, Hawkesbury, Ontario, K6A 3B2",
      "city": "Hawkesbury",
      "postal_code": "K6A 3B2",
      "phone": "855-693-1978",
      "email": "info@hawkesburytherapy.ca",
      "lat": 45.598675,
      "lon": -74.6086697,
      "precision": "address"
    },
    {
      "name": "Martel and Mitchell Rehabilitation",
      "category": "clinic",
      "facility_type": "Community Physiotherapy Clinic",
      "address": "760 Cassells Street, North Bay, Ontario, P1B 4A4",
      "city": "North Bay",
      "postal_code": "P1B 4A4",
      "phone": "705-494-8975",
      "email": "stephanie@martelmitchell.ca",
      "lat": 46.3158105,
      "lon": -79.461443,
      "precision": "address"
    },
    {
      "name": "Movewell Rehabilitation Services",
      "category": "clinic",
      "facility_type": "Community Physiotherapy Clinic",
      "address": "25 Mill Street, Suite 201, Gananoque, Ontario, K7G 2L5",
      "city": "Gananoque",
      "postal_code": "K7G 2L5",
      "phone": "613-382-4200",
      "email": "gan@movewell.ca",
      "lat": 44.3263239,
      "lon": -76.1628389,
      "precision": "address"
    },
    {
      "name": "Healthmax Physiotherapy – East York Inc.",
      "category": "clinic",
      "facility_type": "Community Physiotherapy Clinic",
      "address": "945 O'Connor Drive, Toronto, Ontario, M4B 2S7",
      "city": "Toronto",
      "postal_code": "M4B 2S7",
      "phone": "416-701-1111",
      "email": "eastyork@healthmaxphysio.com",
      "lat": 43.70799,
      "lon": -79.31062,
      "precision": "address"
    },
    {
      "name": "Ottawa Sport Medicine Centre",
      "category": "clinic",
      "facility_type": "Community Physiotherapy Clinic",
      "address": "1370 Clyde Avenue, Ottawa, Ontario, K2G 3H8",
      "city": "Ottawa",
      "postal_code": "K2G 3H8",
      "phone": "613-727-2621",
      "email": "ottawasport@prophysiotherapy.com",
      "lat": 45.359948,
      "lon": -75.7397591,
      "precision": "address"
    },
    {
      "name": "Brighton Sport and Wellness Centre",
      "category": "clinic",
      "facility_type": "Community Physiotherapy Clinic",
      "address": "92 Main Street, PO Box 610, Brighton, Ontario, K0K 1H0",
      "city": "Brighton",
      "postal_code": "K0K 1H0",
      "phone": "613-475-0606",
      "email": "brightonsportandwellness@live.com",
      "lat": 44.0414592,
      "lon": -77.7408668,
      "precision": "address"
    },
    {
      "name": "PT Health - Broadview Physiotherapy",
      "category": "clinic",
      "facility_type": "Community Physiotherapy Clinic",
      "address": "104-770 Broadview Avenue, Ottawa, Ontario, K2A 3Z3",
      "city": "Ottawa",
      "postal_code": "K2A 3Z3",
      "phone": "613-366-1829",
      "email": "broadviewphysio@pthealth.ca",
      "lat": 45.3776485,
      "lon": -75.75518,
      "precision": "address"
    },
    {
      "name": "Martel & Mitchell Physiotherapy - Powassan",
      "category": "clinic",
      "facility_type": "Community Physiotherapy Clinic",
      "address": "8 King Street, Powassan, Ontario, P0H 1Z0",
      "city": "Powassan",
      "postal_code": "P0H 1Z0",
      "phone": "705-494-8975",
      "email": "stephanie@martelmitchell.ca",
      "lat": 46.0812155,
      "lon": -79.3592848,
      "precision": "address"
    },
    {
      "name": "Napanee Physiotherapy and Rehabilitation",
      "category": "clinic",
      "facility_type": "Community Physiotherapy Clinic",
      "address": "8433 Lennox and Addington County Rd 2, Napanee, Ontario, K7R 1B1",
      "city": "Napanee",
      "postal_code": "K7R 1B1",
      "phone": "613-354-3377",
      "email": "napaneephysioandrehab@gmail.com",
      "lat": 44.2473883,
      "lon": -76.9505543,
      "precision": "city"
    },
    {
      "name": "Physio Casselman",
      "category": "clinic",
      "facility_type": "Community Physiotherapy Clinic",
      "address": "20 Industriel, Box 40, Casselman, Ontario, K0A 1M0",
      "city": "Casselman",
      "postal_code": "K0A 1M0",
      "phone": "613-764-1595",
      "email": "physiocasselman@aol.com",
      "lat": 45.3057111,
      "lon": -75.0801293,
      "precision": "address"
    },
    {
      "name": "PhysioNorth",
      "category": "clinic",
      "facility_type": "Community Physiotherapy Clinic",
      "address": "17 York River Drive, Lower Level, Bancroft, Ontario, K0L 1C0",
      "city": "Bancroft",
      "postal_code": "K0L 1C0",
      "phone": "613-332-1010",
      "email": "info@physionorth.ca",
      "lat": 45.0822273,
      "lon": -77.8615701,
      "precision": "address"
    },
    {
      "name": "Lifemark Physiotherapy Capital Sport",
      "category": "clinic",
      "facility_type": "Community Physiotherapy Clinic",
      "address": "Unit A- 234 Laurier Avenue West, Ottawa, Ontario, K1N 5X8",
      "city": "Ottawa",
      "postal_code": "K1N 5X8",
      "phone": "613-722-7839",
      "email": "capitalsport@lifemark.ca",
      "lat": 45.4192082,
      "lon": -75.6963729,
      "precision": "address"
    },
    {
      "name": "Pro Physio & Sport Medicine Centres Kanata Town",
      "category": "clinic",
      "facility_type": "Community Physiotherapy Clinic",
      "address": "117-150 Katimavik Road, Ottawa, Ontario, K2L 2N2",
      "city": "Ottawa",
      "postal_code": "K2L 2N2",
      "phone": "613-592-3813",
      "email": "kanatatown@prophysiotherapy.com",
      "lat": 45.3142956,
      "lon": -75.884198,
      "precision": "address"
    },
    {
      "name": "Pro Physio & Sport Medicine Centres Navan",
      "category": "clinic",
      "facility_type": "Community Physiotherapy Clinic",
      "address": "2-3349 Navan Road, Navan, Ontario, K1W 0K7",
      "city": "Navan",
      "postal_code": "K1W 0K7",
      "phone": "613-822-7773",
      "email": "navan@prophysiotherapy.com",
      "lat": 45.428191,
      "lon": -75.5047869,
      "precision": "address"
    },
    {
      "name": "Pro Physio & Sport Medicine Centres Merivale",
      "category": "clinic",
      "facility_type": "Community Physiotherapy Clinic",
      "address": "3-2 Woodfield Drive, Ottawa, Ontario, K2G 3Y5",
      "city": "Ottawa",
      "postal_code": "K2G 3Y5",
      "phone": "613-226-9969",
      "email": "merivale@prophysiotherapy.com",
      "lat": 45.3351979,
      "lon": -75.7487439,
      "precision": "address"
    },
    {
      "name": "Pro Physio & Sport Medicine Centres Montreal Road",
      "category": "clinic",
      "facility_type": "Community Physiotherapy Clinic",
      "address": "108-150 Montreal Road, Ottawa, Ontario, K1L 8H2",
      "city": "Ottawa",
      "postal_code": "K1L 8H2",
      "phone": "613-842-9939",
      "email": "montrealrd@prophysiotherapy.com",
      "lat": 45.4432056,
      "lon": -75.6406522,
      "precision": "address"
    },
    {
      "name": "Pro Physio & Sport Medicine Centres Pro Plus",
      "category": "clinic",
      "facility_type": "Community Physiotherapy Clinic",
      "address": "3-3570 Strandherd Drive, Ottawa, Ontario, K2J 5L4",
      "city": "Ottawa",
      "postal_code": "K2J 5L4",
      "phone": "613-823-4993",
      "email": "proplus@prophysiotherapy.com",
      "lat": 45.2751185,
      "lon": -75.7376278,
      "precision": "address"
    },
    {
      "name": "Pro Physio & Sport Medicine Centres Ray Friel",
      "category": "clinic",
      "facility_type": "Community Physiotherapy Clinic",
      "address": "1585 Tenth Line Road, Ottawa, Ontario, K1E 3E8",
      "city": "Ottawa",
      "postal_code": "K1E 3E8",
      "phone": "613-837-7405",
      "email": "rayfriel@prophysiotherapy.com",
      "lat": 45.4707865,
      "lon": -75.4924908,
      "precision": "address"
    },
    {
      "name": "Pro Physio & Sport Medicine Centres Riverside Court",
      "category": "clinic",
      "facility_type": "Community Physiotherapy Clinic",
      "address": "2-3635 Rivergate Way, Ottawa, Ontario, K1V 2A4",
      "city": "Ottawa",
      "postal_code": "K1V 2A4",
      "phone": "613-739-9833",
      "email": "riversidecourt@prophysiotherapy.com",
      "lat": 45.3451595,
      "lon": -75.6922028,
      "precision": "address"
    },
    {
      "name": "Shelburne Physiotherapy Centre",
      "category": "clinic",
      "facility_type": "Community Physiotherapy Clinic",
      "address": "C-730 Industrial Road, Shelburne, Ontario, L9V 2Z4",
      "city": "Shelburne",
      "postal_code": "L9V 2Z4",
      "phone": "519-925-2120",
      "email": "info@shelburnephysio.com",
      "lat": 44.0838592,
      "lon": -80.1902659,
      "precision": "address"
    },
    {
      "name": "PT Health - Trenton Physiotherapy",
      "category": "clinic",
      "facility_type": "Community Physiotherapy Clinic",
      "address": "160-241 RCAF Road, Trenton, Ontario, K8V 5P8",
      "city": "Trenton",
      "postal_code": "K8V 5P8",
      "phone": "613-651-9955",
      "email": "trentonphysio@pthealth.ca",
      "lat": 44.1314815,
      "lon": -77.5591907,
      "precision": "address"
    },
    {
      "name": "Bayview Rehabilitation",
      "category": "clinic",
      "facility_type": "Community Physiotherapy Clinic",
      "address": "206-3333 Bayview Avenue, North York, Ontario, M2K 1G4",
      "city": "North York",
      "postal_code": "M2K 1G4",
      "phone": "416-223-0375",
      "email": "staff@bayviewrehabilitation.com",
      "lat": 43.7919,
      "lon": -79.39281,
      "precision": "address"
    },
    {
      "name": "Lifemark Physiotherapy Peterborough",
      "category": "clinic",
      "facility_type": "Community Physiotherapy Clinic",
      "address": "302-270 Charlotte Street, Peterborough, Ontario, K9J 2V4",
      "city": "Peterborough",
      "postal_code": "K9J 2V4",
      "phone": "705-741-2284",
      "email": "peterborough@lifemark.ca",
      "lat": 44.3033857,
      "lon": -78.3246457,
      "precision": "address"
    },
    {
      "name": "CBI Health Centre-New Liskeard Shepherdson",
      "category": "clinic",
      "facility_type": "Community Physiotherapy Clinic",
      "address": "421 Shepherdson Road, New Liskeard, Ontario, P0J 1P0",
      "city": "New Liskeard",
      "postal_code": "P0J 1P0",
      "phone": "705-647-1088",
      "email": "temiskamingshores@cbi.ca",
      "lat": 47.4956233,
      "lon": -79.6933292,
      "precision": "address"
    },
    {
      "name": "Closing the Gap Healthcare Group - Campbellford",
      "category": "clinic",
      "facility_type": "Community Physiotherapy Clinic",
      "address": "119 Isabella Street, Campbellford, Ontario, K0L 1L0",
      "city": "Campbellford",
      "postal_code": "K0L 1L0",
      "phone": "705-653-0551",
      "email": "campbellford@closingthegap.ca",
      "lat": 44.3120438,
      "lon": -77.7914196,
      "precision": "address"
    },
    {
      "name": "Closing the Gap Healthcare Group - Lindsay",
      "category": "clinic",
      "facility_type": "Community Physiotherapy Clinic",
      "address": "206-189 Kent Street West, Lindsay, Ontario, K9V 5G6",
      "city": "Lindsay",
      "postal_code": "K9V 5G6",
      "phone": "705-324-5085",
      "email": "Lindsay.clinic@closingthegap.ca",
      "lat": 44.3542842,
      "lon": -78.7401085,
      "precision": "address"
    },
    {
      "name": "Lakefield Physiotherapy & Foot Health Clinic",
      "category": "clinic",
      "facility_type": "Community Physiotherapy Clinic",
      "address": "2-150 Strickland Street, RR#4, Lakefield, Ontario, K0L 2H0",
      "city": "Lakefield",
      "postal_code": "K0L 2H0",
      "phone": "705-652-6999",
      "email": "lakefield.physio@lifemark.ca",
      "lat": 44.4326757,
      "lon": -78.2551224,
      "precision": "address"
    },
    {
      "name": "Meridian Spine and Joint Physiotherapy",
      "category": "clinic",
      "facility_type": "Community Physiotherapy Clinic",
      "address": "203-1261 Beaverbrook Ave, London, Ontario, N6H 0G6",
      "city": "London",
      "postal_code": "N6H 0G6",
      "phone": "519-472-0454",
      "email": "beaverbrook@spineandjointcentre.com",
      "lat": 42.9906621,
      "lon": -81.2920286,
      "precision": "address"
    },
    {
      "name": "Meridian Spine and Joint Physiotherapy - Carling",
      "category": "clinic",
      "facility_type": "Community Physiotherapy Clinic",
      "address": "124 Barker Street\nCarling Heights Medical Centre, London, Ontario, N5Y 1Y1",
      "city": "London",
      "postal_code": "N5Y 1Y1",
      "phone": "519-451-4511",
      "email": "carling@spineandjointcentre.com",
      "lat": 43.007735,
      "lon": -81.226817,
      "precision": "address"
    },
    {
      "name": "Meridian Spine and Joint Physiotherapy - Mt. Brydges",
      "category": "clinic",
      "facility_type": "Community Physiotherapy Clinic",
      "address": "22262 Mill Road, Southwest Medical Health Centre, Mount Brydges, Ontario, N0L 1W0",
      "city": "Mount Brydges",
      "postal_code": "N0L 1W0",
      "phone": "519-264-2800",
      "email": "mtbrydges@spineandjointcentre.com",
      "lat": 42.906266,
      "lon": -81.4720999,
      "precision": "address"
    },
    {
      "name": "Pickering Sports Medicine & Wellness Centre",
      "category": "clinic",
      "facility_type": "Community Physiotherapy Clinic",
      "address": "1867 Valley Farm Road, Pickering, Ontario, L1V 3Y7",
      "city": "Pickering",
      "postal_code": "L1V 3Y7",
      "phone": "905-839-8886",
      "email": "pickeringsportsmedicine@bellnet.ca",
      "lat": 43.8392345,
      "lon": -79.0814572,
      "precision": "address"
    },
    {
      "name": "Physiotherapy Associates of Port Perry",
      "category": "clinic",
      "facility_type": "Community Physiotherapy Clinic",
      "address": "110-462 Paxton Street, Port Perry, Ontario, L9L 1L9",
      "city": "Port Perry",
      "postal_code": "L9L 1L9",
      "phone": "905-985-8363",
      "email": "info@portperryphysio.ca",
      "lat": 44.1041095,
      "lon": -78.953936,
      "precision": "address"
    },
    {
      "name": "ELITE PHYSIOTHERAPY AND HEALTH CENTRE",
      "category": "clinic",
      "facility_type": "Community Physiotherapy Clinic",
      "address": "4-60 Brian Harrison Way, Scarborough, Ontario, M1P 5J5",
      "city": "Scarborough",
      "postal_code": "M1P 5J5",
      "phone": "416-296-9990",
      "email": "info@elitephysiotoronto.com",
      "lat": 43.7736668,
      "lon": -79.2581398,
      "precision": "address"
    },
    {
      "name": "PT Health - Trafalgar Physiotherapy",
      "category": "clinic",
      "facility_type": "Community Physiotherapy Clinic",
      "address": "401-1235 Trafalgar Road, Oakville, Ontario, L6H 3P1",
      "city": "Oakville",
      "postal_code": "L6H 3P1",
      "phone": "289-813-6908",
      "email": "trafalgarphysio@pthealth.ca",
      "lat": 43.4675037,
      "lon": -79.6904326,
      "precision": "address"
    },
    {
      "name": "Closing the Gap Healthcare Group",
      "category": "clinic",
      "facility_type": "Community Physiotherapy Clinic",
      "address": "2810 Matheson Boulevard East, Suite 100, Mississauga, Ontario, L4W 4X7",
      "city": "Mississauga",
      "postal_code": "L4W 4X7",
      "phone": "877-560-0202",
      "email": "misclinic@closingthegap.ca",
      "lat": 43.6654913,
      "lon": -79.5954661,
      "precision": "address"
    },
    {
      "name": "Glenwoods Rehab & Physiotherapy Clinic Inc.",
      "category": "clinic",
      "facility_type": "Community Physiotherapy Clinic",
      "address": "417 The Queensway South, Suite 204, Keswick, Ontario, L4P 2C7",
      "city": "Keswick",
      "postal_code": "L4P 2C7",
      "phone": "905-535-4455",
      "email": "glenwoodsrehab@gmail.com",
      "lat": 44.2161568,
      "lon": -79.4642587,
      "precision": "address"
    },
    {
      "name": "Joint Rehab",
      "category": "clinic",
      "facility_type": "Community Physiotherapy Clinic",
      "address": "1B & 1-9275 Markham Road, Markham, Ontario, L6E 1A1",
      "city": "Markham",
      "postal_code": "L6E 1A1",
      "phone": "905-471-3535",
      "email": "info@jointrehab.ca",
      "lat": 43.8940198,
      "lon": -79.2636557,
      "precision": "address"
    },
    {
      "name": "LifeMark Physiotherapy - Meadowvale",
      "category": "clinic",
      "facility_type": "Community Physiotherapy Clinic",
      "address": "101-6855 Meadowvale Town Centre Circle, Mississauga, Ontario, L5N 2Y1",
      "city": "Mississauga",
      "postal_code": "L5N 2Y1",
      "phone": "905-858-3273",
      "email": "meadowvale@lifemark.ca",
      "lat": 43.5840283,
      "lon": -79.7583533,
      "precision": "address"
    },
    {
      "name": "Lifemark Physiotherapy Maple",
      "category": "clinic",
      "facility_type": "Community Physiotherapy Clinic",
      "address": "12&13-2200 Rutherford Road, Maple, Ontario, L4K 5V2",
      "city": "Maple",
      "postal_code": "L4K 5V2",
      "phone": "905-417-4135",
      "email": "maple@lifemark.ca",
      "lat": 43.8370598,
      "lon": -79.5066186,
      "precision": "address"
    },
    {
      "name": "Luccisano Physiotherapy Professional Corporation",
      "category": "clinic",
      "facility_type": "Community Physiotherapy Clinic",
      "address": "4600 Highway 7, Suite 255, Woodbridge, Ontario, L4L 4Y7",
      "city": "Woodbridge",
      "postal_code": "L4L 4Y7",
      "phone": "905-663-6663",
      "email": "luccisanophysiotherapy@bellnet.ca",
      "lat": 43.7837308,
      "lon": -79.5761975,
      "precision": "address"
    },
    {
      "name": "LifeMark Church Street",
      "category": "clinic",
      "facility_type": "Community Physiotherapy Clinic",
      "address": "377 Church Street, suite G-01, Markham, Ontario, L6B 1A1",
      "city": "Markham",
      "postal_code": "L6B 1A1",
      "phone": "905-471-4259",
      "email": "markham@lifemark.ca",
      "lat": 43.8849146,
      "lon": -79.2331409,
      "precision": "address"
    },
    {
      "name": "Meridian Active Joint Physiotherapy",
      "category": "clinic",
      "facility_type": "Community Physiotherapy Clinic",
      "address": "74 Front Street East, Strathroy, Ontario, N7G 1Y7",
      "city": "Strathroy",
      "postal_code": "N7G 1Y7",
      "phone": "519-245-5868",
      "email": "strathroy@spineandjointcentre.com",
      "lat": 42.9597362,
      "lon": -81.6215834,
      "precision": "address"
    },
    {
      "name": "CBI Health Centre-Mississauga Eglinton",
      "category": "clinic",
      "facility_type": "Community Physiotherapy Clinic",
      "address": "2300 Eglinton Avenue West, Suite G-05, Mississauga, Ontario, L5M 2V8",
      "city": "Mississauga",
      "postal_code": "L5M 2V8",
      "phone": "905-820-2829",
      "email": "physiotherapyone@cbi.ca",
      "lat": 43.558947,
      "lon": -79.70626,
      "precision": "address"
    },
    {
      "name": "Saint Elizabeth Rehab Health",
      "category": "clinic",
      "facility_type": "Community Physiotherapy Clinic",
      "address": "201-10830 Bayview Avenue, Richmond Hill, Ontario, L4S 1L7",
      "city": "Richmond Hill",
      "postal_code": "L4S 1L7",
      "phone": "905-883-2000",
      "email": "shelbyfisch@sehc.com",
      "lat": 43.8950158,
      "lon": -79.4202975,
      "precision": "address"
    },
    {
      "name": "SPINEGroup",
      "category": "clinic",
      "facility_type": "Community Physiotherapy Clinic",
      "address": "1-7611 Pine Valley Drive, Vaughan, Ontario, L4L 0A2",
      "city": "Vaughan",
      "postal_code": "L4L 0A2",
      "phone": "905-850-7746",
      "email": "admin@spinegroup.ca",
      "lat": 43.7821246,
      "lon": -79.5724207,
      "precision": "address"
    },
    {
      "name": "Telma Grant Physio & Sports Therapy",
      "category": "clinic",
      "facility_type": "Community Physiotherapy Clinic",
      "address": "1-234 King Street East, Bowmanville, Ontario, L1C 1P5",
      "city": "Bowmanville",
      "postal_code": "L1C 1P5",
      "phone": "905-697-8001",
      "email": "Info@TelmaGrant.Ca",
      "lat": 43.9122754,
      "lon": -78.6715942,
      "precision": "address"
    },
    {
      "name": "Times Physiotherapy and Rehabilitation Centre",
      "category": "clinic",
      "facility_type": "Community Physiotherapy Clinic",
      "address": "304-550 Highway 7 East, Richmond Hill, Ontario, L4B 3Z4",
      "city": "Richmond Hill",
      "postal_code": "L4B 3Z4",
      "phone": "905-707-9888",
      "email": "timesphysio@gmail.com",
      "lat": 43.8801166,
      "lon": -79.4392925,
      "precision": "city"
    },
    {
      "name": "Total Physiotherapy & Sports Injuries Centre",
      "category": "clinic",
      "facility_type": "Community Physiotherapy Clinic",
      "address": "2-329 McDonnel Street, Peterborough, Ontario, K9H 2W9",
      "city": "Peterborough",
      "postal_code": "K9H 2W9",
      "phone": "705-749-1313",
      "email": "info@totalphysiotherapy.ca",
      "lat": 44.3093148,
      "lon": -78.3293101,
      "precision": "address"
    },
    {
      "name": "CBI Health - Cobourg West",
      "category": "clinic",
      "facility_type": "Community Physiotherapy Clinic",
      "address": "727 William Street, Cobourg, Ontario, K9A 3A7",
      "city": "Cobourg",
      "postal_code": "K9A 3A7",
      "phone": "905-373-7045",
      "email": "cobourgwest@cbihealth.ca",
      "lat": 43.9677692,
      "lon": -78.1878183,
      "precision": "address"
    },
    {
      "name": "CBI Health - Port Hope",
      "category": "clinic",
      "facility_type": "Community Physiotherapy Clinic",
      "address": "125 Toronto Road, Port Hope, Ontario, L1A 2S6",
      "city": "Port Hope",
      "postal_code": "L1A 2S6",
      "phone": "905-885-0024",
      "email": "porthope@cbihealth.ca",
      "lat": 43.9580847,
      "lon": -78.3196955,
      "precision": "address"
    },
    {
      "name": "Charlton Physio and Wellness",
      "category": "clinic",
      "facility_type": "Community Physiotherapy Clinic",
      "address": "230 James Street South, 3rd Floor, Hamilton, Ontario, L8P 3B3",
      "city": "Hamilton",
      "postal_code": "L8P 3B3",
      "phone": "905-521-5271",
      "email": "info@charltonphysiotherapy.com",
      "lat": 43.2496584,
      "lon": -79.8723764,
      "precision": "address"
    },
    {
      "name": "MDR Clinics",
      "category": "clinic",
      "facility_type": "Community Physiotherapy Clinic",
      "address": "36-7920 Hurontario Street, Brampton, Ontario, L6Y 0P7",
      "city": "Brampton",
      "postal_code": "L6Y 0P7",
      "phone": "647-717-3422",
      "email": "mdrclinics@gmail.com",
      "lat": 43.664456,
      "lon": -79.7314855,
      "precision": "address"
    },
    {
      "name": "Achieva Health",
      "category": "clinic",
      "facility_type": "Community Physiotherapy Clinic",
      "address": "247 Franklin Street North, Kitchener, Ontario, N2A 1Y5",
      "city": "Kitchener",
      "postal_code": "N2A 1Y5",
      "phone": "519-896-0805",
      "email": "swc@achievahealth.ca",
      "lat": 43.4407241,
      "lon": -80.4453649,
      "precision": "address"
    },
    {
      "name": "Chalmers Physiotherapy",
      "category": "clinic",
      "facility_type": "Community Physiotherapy Clinic",
      "address": "208-328 Highway 7 East, Richmond Hill, Ontario, L4B 3P7",
      "city": "Richmond Hill",
      "postal_code": "L4B 3P7",
      "phone": "905-709-3120",
      "email": "chalmerspt@yahoo.ca",
      "lat": 43.8801166,
      "lon": -79.4392925,
      "precision": "city"
    },
    {
      "name": "Work-Fit Georgetown",
      "category": "clinic",
      "facility_type": "Community Physiotherapy Clinic",
      "address": "1 Princess Anne Drive, Georgetown, Ontario, L7G 2B8",
      "city": "Georgetown",
      "postal_code": "L7G 2B8",
      "phone": "905-873-4598",
      "email": "wfpGeorgetown@haltonhealthcare.com",
      "lat": 43.6446052,
      "lon": -79.9337253,
      "precision": "address"
    },
    {
      "name": "Work-Fit Milton",
      "category": "clinic",
      "facility_type": "Community Physiotherapy Clinic",
      "address": "7030 Derry Road West, Milton, Ontario, L9T 7H6",
      "city": "Milton",
      "postal_code": "L9T 7H6",
      "phone": "905-876-7022",
      "email": "wfpmilton@haltonhealthcare.com",
      "lat": 43.5549595,
      "lon": -79.808328,
      "precision": "address"
    },
    {
      "name": "Work-Fit Oakville",
      "category": "clinic",
      "facility_type": "Community Physiotherapy Clinic",
      "address": "3001 Hospital Gate, Oakville, Ontario, L6M 0L8",
      "city": "Oakville",
      "postal_code": "L6M 0L8",
      "phone": "905-845-9540",
      "email": "wfp@haltonhealthcare.on.ca",
      "lat": 43.4506912,
      "lon": -79.7644492,
      "precision": "address"
    },
    {
      "name": "Focus Physiotherapy",
      "category": "clinic",
      "facility_type": "Community Physiotherapy Clinic",
      "address": "211-2338 Hurontario Street, Mississauga, Ontario, L5B 1N1",
      "city": "Mississauga",
      "postal_code": "L5B 1N1",
      "phone": "905-275-5100",
      "email": "info@focusphysiotherapy.com",
      "lat": 43.5744079,
      "lon": -79.6092435,
      "precision": "address"
    },
    {
      "name": "Active Aging & Rehab",
      "category": "clinic",
      "facility_type": "Community Physiotherapy Clinic",
      "address": "1145 Bridge Street, Manotick, Ontario, K4M 0G8",
      "city": "Manotick",
      "postal_code": "K4M 0G8",
      "phone": "613-823-4993",
      "email": "billings_aa@prophysiotherapy.com",
      "lat": 45.227466,
      "lon": -75.6853905,
      "precision": "address"
    },
    {
      "name": "ErinoakKids - Mississauga",
      "category": "clinic",
      "facility_type": "Community Physiotherapy Clinic - Paediatric",
      "address": "1230 Central Parkway West, Mississauga, Ontario, L5C 0A5",
      "city": "Mississauga",
      "postal_code": "L5C 0A5",
      "phone": "905-855-2690\nToll Free: 1-877-374-6625",
      "email": "Intake@erinoakkids.ca",
      "lat": 43.566805,
      "lon": -79.6629255,
      "precision": "address"
    },
    {
      "name": "ErinoakKids - Brampton",
      "category": "clinic",
      "facility_type": "Community Physiotherapy Clinic - Paediatric",
      "address": "10145 McVean Drive, Brampton, Ontario, L6P 4K7",
      "city": "Brampton",
      "postal_code": "L6P 4K7",
      "phone": "905-855-2690\nToll Free: 1-877-374-6625",
      "email": "Intake@erinoakkids.ca",
      "lat": 43.7666876,
      "lon": -79.6795257,
      "precision": "address"
    },
    {
      "name": "One Kids Place",
      "category": "clinic",
      "facility_type": "Community Physiotherapy Clinic",
      "address": "400 McKeown Avenue, North Bay, Ontario, P1B 0B2",
      "city": "North Bay",
      "postal_code": "P1B 0B2",
      "phone": "705-476-5437",
      "email": "info@onekidsplace.ca",
      "lat": 46.3340792,
      "lon": -79.4863158,
      "precision": "address"
    },
    {
      "name": "John Salituri Physiotherapy",
      "category": "clinic",
      "facility_type": "Community Physiotherapy Clinic",
      "address": "116 Spring St, Sault Ste. Marie, Ontario, P6A 3A1",
      "city": "Sault Ste. Marie",
      "postal_code": "P6A 3A1",
      "phone": "705-254-1399",
      "email": "lakesuperiorphysio@shaw.ca",
      "lat": 46.5103145,
      "lon": -84.3309069,
      "precision": "address"
    },
    {
      "name": "Core Restore Inc.",
      "category": "clinic",
      "facility_type": "Community Physiotherapy Clinic",
      "address": "205467 County Road 109, Amaranth, Ontario, L9W 0V1",
      "city": "Amaranth",
      "postal_code": "L9W 0V1",
      "phone": "519-939-9891",
      "email": "hello@corerestorephysio.com",
      "lat": 43.9137562,
      "lon": -80.1405461,
      "precision": "address"
    },
    {
      "name": "Sport-Medic Physiotherapy Clinic",
      "category": "clinic",
      "facility_type": "Community Physiotherapy Clinic",
      "address": "106 Broadway, Orangeville, Ontario, L9W 1J9",
      "city": "Orangeville",
      "postal_code": "L9W 1J9",
      "phone": "519-941-4481",
      "email": "sport-medic@bellnet.ca",
      "lat": 43.9197317,
      "lon": -80.0945343,
      "precision": "address"
    },
    {
      "name": "Brockville Physiotherapy and Sports Injuries",
      "category": "clinic",
      "facility_type": "Community Physiotherapy Clinic",
      "address": "40 King Street East, Brockville, Ontario, K6V 1B1",
      "city": "Brockville",
      "postal_code": "K6V 1B1",
      "phone": "613-498-4002",
      "email": "brockville@hometownphysiotherapy.com",
      "lat": 44.5911783,
      "lon": -75.6820054,
      "precision": "address"
    },
    {
      "name": "Kingston Injury Management Centre",
      "category": "clinic",
      "facility_type": "Community Physiotherapy Clinic",
      "address": "1440 Princess Street, Kingston, Ontario, K7N 2E5",
      "city": "Kingston",
      "postal_code": "K7N 2E5",
      "phone": "613-546-5148",
      "email": "info@kimcphysio.ca",
      "lat": 44.2504058,
      "lon": -76.5323972,
      "precision": "address"
    },
    {
      "name": "Bayridge Physiotherapy",
      "category": "clinic",
      "facility_type": "Community Physiotherapy Clinic",
      "address": "7-775 Strand Boulevard, Kingston, Ontario, K7P 2S7",
      "city": "Kingston",
      "postal_code": "K7P 2S7",
      "phone": "613-634-6666",
      "email": "info@bayridgephysio.com",
      "lat": 44.2515102,
      "lon": -76.5920262,
      "precision": "address"
    },
    {
      "name": "Lifemark Physiotherapy Burlington Brant",
      "category": "clinic",
      "facility_type": "Community Physiotherapy Clinic",
      "address": "2015 Mount Forest Drive, Burlington, Ontario, L7P 1H4",
      "city": "Burlington",
      "postal_code": "L7P 1H4",
      "phone": "289-348-0345",
      "email": "brant@lifemark.ca",
      "lat": 43.3469007,
      "lon": -79.8282906,
      "precision": "address"
    },
    {
      "name": "Stone Road Physiotherapy",
      "category": "clinic",
      "facility_type": "Community Physiotherapy Clinic",
      "address": "212-435 Stone Road West, Guelph, Ontario, N1G 2X6",
      "city": "Guelph",
      "postal_code": "N1G 2X6",
      "phone": "519-822-2435",
      "email": "physio@omh-inc.com",
      "lat": 43.5183818,
      "lon": -80.2392604,
      "precision": "address"
    },
    {
      "name": "Innova Physio & Sports Rehab",
      "category": "clinic",
      "facility_type": "Community Physiotherapy Clinic",
      "address": "Kingfisher Square, 9-920 Upper Wentworth Street, Hamilton, Ontario, L9A 5C5",
      "city": "Hamilton",
      "postal_code": "L9A 5C5",
      "phone": "905-389-8772",
      "email": "info@innovaphysio.ca",
      "lat": 43.2192051,
      "lon": -79.8644475,
      "precision": "address"
    },
    {
      "name": "Advantage Physiotherapy Centre",
      "category": "clinic",
      "facility_type": "Community Physiotherapy Clinic",
      "address": "386 Gage Avenue, Kitchener, Ontario, N2M 5C9",
      "city": "Kitchener",
      "postal_code": "N2M 5C9",
      "phone": "519-742-5482",
      "email": "sue@advantagephysio.com",
      "lat": 43.4448082,
      "lon": -80.5209354,
      "precision": "address"
    },
    {
      "name": "Whitby Physiotherapy and Sports Rehab",
      "category": "clinic",
      "facility_type": "Community Physiotherapy Clinic",
      "address": "198 Des Newman Boulevard, Whitby, Ontario, L1P 1Y5",
      "city": "Whitby",
      "postal_code": "L1P 1Y5",
      "phone": "365-297-7575",
      "email": "info@oshawaphysiotherapy.ca",
      "lat": 43.8800356,
      "lon": -78.9789514,
      "precision": "address"
    },
    {
      "name": "Group Health Centre",
      "category": "clinic",
      "facility_type": "Community Physiotherapy Clinic",
      "address": "240 McNabb Street, Sault Ste. Marie, Ontario, P6B 1Y5",
      "city": "Sault Ste. Marie",
      "postal_code": "P6B 1Y5",
      "phone": "705-759-5521",
      "email": "nelson_f@ghc.on.ca",
      "lat": 46.5219198,
      "lon": -84.3155334,
      "precision": "address"
    },
    {
      "name": "Thorold Medical Facilities Ltd.",
      "category": "clinic",
      "facility_type": "Community Physiotherapy Clinic",
      "address": "60 Albert Street West, Thorold, Ontario, L2V 2G7",
      "city": "Thorold",
      "postal_code": "L2V 2G7",
      "phone": "289-362-3340",
      "email": "info@thoroldmedicalpharmacy.ca",
      "lat": 43.1248512,
      "lon": -79.207164,
      "precision": "address"
    },
    {
      "name": "Miss M. W. Seaver",
      "category": "clinic",
      "facility_type": "Community Physiotherapy Clinic",
      "address": "8-1121 Bellamy Road North, Scarborough, Ontario, M1H 3B9",
      "city": "Scarborough",
      "postal_code": "M1H 3B9",
      "phone": "416-438-5195",
      "email": "seaverphysiotherapy@gmail.com",
      "lat": 43.7775174,
      "lon": -79.2428154,
      "precision": "address"
    },
    {
      "name": "Albany Medical Clinic",
      "category": "clinic",
      "facility_type": "Community Physiotherapy Clinic",
      "address": "807 Broadview Avenue, Toronto, Ontario, M4K 2P8",
      "city": "Toronto",
      "postal_code": "M4K 2P8",
      "phone": "416-461-9471",
      "email": "physio@albanyclinic.ca",
      "lat": 43.6779315,
      "lon": -79.3581997,
      "precision": "address"
    },
    {
      "name": "Physio Wellness (Finch) Clinic",
      "category": "clinic",
      "facility_type": "Community Physiotherapy Clinic",
      "address": "9-6620 Finch Avenue West, Toronto, Ontario, M9V 5H7",
      "city": "Toronto",
      "postal_code": "M9V 5H7",
      "phone": "416-489-5313",
      "email": "info@physiowell.ca",
      "lat": 43.7349996,
      "lon": -79.6028452,
      "precision": "address"
    },
    {
      "name": "High Park Physiotherapy & Sports Medicine Clinic",
      "category": "clinic",
      "facility_type": "Community Physiotherapy Clinic",
      "address": "2146 Bloor Street West, Toronto, Ontario, M6S 1M8",
      "city": "Toronto",
      "postal_code": "M6S 1M8",
      "phone": "416-766-8565",
      "email": "admin@bloorwestphysiotherapy.com",
      "lat": 43.6520975,
      "lon": -79.4730151,
      "precision": "address"
    },
    {
      "name": "Physio Wellness (Jane)",
      "category": "clinic",
      "facility_type": "Community Physiotherapy Clinic",
      "address": "202-909 Jane Street, Toronto, Ontario, M6N 4C6",
      "city": "Toronto",
      "postal_code": "M6N 4C6",
      "phone": "416-604-4404",
      "email": "info@physiowell.ca",
      "lat": 43.6776773,
      "lon": -79.4957152,
      "precision": "address"
    },
    {
      "name": "Hamilton Physio & Rehab",
      "category": "clinic",
      "facility_type": "Community Physiotherapy Clinic",
      "address": "207-200 James Street South, Hamilton, Ontario, L8P 3A9",
      "city": "Hamilton",
      "postal_code": "L8P 3A9",
      "phone": "905-529-0521",
      "email": "hamiltonphysiorehab@gmail.com",
      "lat": 43.2505699,
      "lon": -79.8720301,
      "precision": "address"
    },
    {
      "name": "Queensway Physiotherapy Centre",
      "category": "clinic",
      "facility_type": "Community Physiotherapy Clinic",
      "address": "100-365 Evans Avenue, Etobicoke, Ontario, M8Z 1K2",
      "city": "Etobicoke",
      "postal_code": "M8Z 1K2",
      "phone": "416-251-5400",
      "email": "queenswayphysio@bell.net",
      "lat": 43.6163489,
      "lon": -79.5210565,
      "precision": "address"
    },
    {
      "name": "Eglinton-Bayview and Joints In Motion Inc.",
      "category": "clinic",
      "facility_type": "Community Physiotherapy Clinic",
      "address": "355 Eglinton Avenue East, Toronto, Ontario, M4P 1M5",
      "city": "Toronto",
      "postal_code": "M4P 1M5",
      "phone": "416-489-8888",
      "email": "treppas@achievahealth.ca",
      "lat": 43.7090055,
      "lon": -79.3859078,
      "precision": "address"
    },
    {
      "name": "Tillsonburg Physiotherapy Clinic",
      "category": "clinic",
      "facility_type": "Community Physiotherapy Clinic",
      "address": "171 North Street East, Tillsonburg, Ontario, N4G 1B8",
      "city": "Tillsonburg",
      "postal_code": "N4G 1B8",
      "phone": "519-842-5162",
      "email": "info@tillsonburgphysiotherapy.ca",
      "lat": 42.8812277,
      "lon": -80.7259571,
      "precision": "address"
    },
    {
      "name": "Anders Physiotherapy",
      "category": "clinic",
      "facility_type": "Community Physiotherapy Clinic",
      "address": "1236 Lawrence Avenue East, North York, Ontario, M3A 1B9",
      "city": "North York",
      "postal_code": "M3A 1B9",
      "phone": "416-447-1457",
      "email": "andersphysio@yahoo.ca",
      "lat": 43.7412873,
      "lon": -79.3195521,
      "precision": "address"
    },
    {
      "name": "Coxwell Physiotherapy Centre",
      "category": "clinic",
      "facility_type": "Community Physiotherapy Clinic",
      "address": "201A-126 Wellington Street West, Aurora, Ontario, L4G 2N9",
      "city": "Aurora",
      "postal_code": "L4G 2N9",
      "phone": "905-841-7126",
      "email": "info@coxwellphysio.com",
      "lat": 43.9986769,
      "lon": -79.4750033,
      "precision": "address"
    },
    {
      "name": "Sam Shuqair Physiotherapy",
      "category": "clinic",
      "facility_type": "Community Physiotherapy Clinic",
      "address": "195 Harkness Street, Sarnia, Ontario, N7T 3H2",
      "city": "Sarnia",
      "postal_code": "N7T 3H2",
      "phone": "519-344-7581",
      "email": "shuqairphysio@hotmail.com",
      "lat": 42.9670603,
      "lon": -82.3962764,
      "precision": "address"
    },
    {
      "name": "Lifemark Physiotherapy Stoney Creek",
      "category": "clinic",
      "facility_type": "Community Physiotherapy Clinic",
      "address": "42 King Street East, Stoney Creek, Ontario, L8G 1K1",
      "city": "Stoney Creek",
      "postal_code": "L8G 1K1",
      "phone": "905-662-2011",
      "email": "stoneycreek@lifemark.ca",
      "lat": 43.2163838,
      "lon": -79.7561324,
      "precision": "address"
    },
    {
      "name": "Oakville Physiotherapy Centre",
      "category": "clinic",
      "facility_type": "Community Physiotherapy Clinic",
      "address": "106-1060 Speers Road, Oakville, Ontario, L6L 2X4",
      "city": "Oakville",
      "postal_code": "L6L 2X4",
      "phone": "905-845-6922",
      "email": "oakvillephysiotherapy@gmail.com",
      "lat": 43.4313431,
      "lon": -79.703666,
      "precision": "address"
    },
    {
      "name": "York Physiotherapy and Rehabilitation Centre",
      "category": "clinic",
      "facility_type": "Community Physiotherapy Clinic",
      "address": "977 Eglinton Avenue West, Toronto, Ontario, M6C 2C4",
      "city": "Toronto",
      "postal_code": "M6C 2C4",
      "phone": "416-781-3945",
      "email": "yorkphysio@rogers.com",
      "lat": 43.6999662,
      "lon": -79.4296618,
      "precision": "address"
    },
    {
      "name": "Lindsay Physiotherapy Services",
      "category": "clinic",
      "facility_type": "Community Physiotherapy Clinic",
      "address": "86 Angeline Street South, Suite 105, Lindsay, Ontario, K9V 6C5",
      "city": "Lindsay",
      "postal_code": "K9V 6C5",
      "phone": "705-324-8512",
      "email": "lindsayphysiotherapy@bellnet.ca",
      "lat": 44.3454955,
      "lon": -78.7478245,
      "precision": "address"
    },
    {
      "name": "Barraco Physiotherapy and Wellness",
      "category": "clinic",
      "facility_type": "Community Physiotherapy Clinic",
      "address": "3-185 Erie Street South, Leamington, Ontario, N8H 3B9",
      "city": "Leamington",
      "postal_code": "N8H 3B9",
      "phone": "548-778-0029",
      "email": "info@barracophysiotherapy.com",
      "lat": 42.0348973,
      "lon": -82.6009907,
      "precision": "address"
    },
    {
      "name": "Clarkson Sports and Physiotherapy",
      "category": "clinic",
      "facility_type": "Community Physiotherapy Clinic",
      "address": "1400 Lakeshore Road West, Mississauga, Ontario, L5J 1J1",
      "city": "Mississauga",
      "postal_code": "L5J 1J1",
      "phone": "905-855-8372",
      "email": "clarksonphysio@gmail.com",
      "lat": 43.524596,
      "lon": -79.6148659,
      "precision": "address"
    },
    {
      "name": "Joint Rehab",
      "category": "clinic",
      "facility_type": "Community Physiotherapy Clinic",
      "address": "13-6633 Highway 7, Markham, Ontario, L3P 7P2",
      "city": "Markham",
      "postal_code": "L3P 7P2",
      "phone": "905-471-6707",
      "email": "info-Ashgrove@jointrehab.ca",
      "lat": 43.8786035,
      "lon": -79.2368507,
      "precision": "address"
    },
    {
      "name": "ErinoakKids - Brampton",
      "category": "clinic",
      "facility_type": "Community Physiotherapy Clinic - Paediatric",
      "address": "224 Centennial Road, Units 8-11, Orangeville, Ontario, L9W 5K2",
      "city": "Orangeville",
      "postal_code": "L9W 5K2",
      "phone": "905-855-2690\nToll Free: 1-877-374-6625",
      "email": "Intake@erinoakkids.ca",
      "lat": 43.9138806,
      "lon": -80.1063316,
      "precision": "address"
    },
    {
      "name": "Oxford County Community Health Centre",
      "category": "clinic",
      "facility_type": "Community Health Centre",
      "address": "35 Metcalf Street, Woodstock, Ontario, N4S 3E6",
      "city": "Woodstock",
      "postal_code": "N4S 3E6",
      "phone": "519-539-1111",
      "email": "N/A",
      "lat": 43.1290461,
      "lon": -80.7565435,
      "precision": "address"
    },
    {
      "name": "Centre de Santé Univi Health Centre",
      "category": "clinic",
      "facility_type": "Community Health Centre",
      "address": "44 St-Christophe Street, Noelville, Ontario, P0M 2N0",
      "city": "Noelville",
      "postal_code": "P0M 2N0",
      "phone": "705-898-2594",
      "email": "N/A",
      "lat": 46.1359908,
      "lon": -80.4276942,
      "precision": "address"
    },
    {
      "name": "Winchester District Memorial Hospital-Embrun Region",
      "category": "hospital",
      "facility_type": "Hospital",
      "address": "738 Notre Dame Street, Embrun, Ontario, K0A 1W1",
      "city": "Embrun",
      "postal_code": "K0A 1W1",
      "phone": "613-774-2420, Ext 6872",
      "email": "physio@wdmh.on.ca",
      "lat": 45.2669467,
      "lon": -75.3038073,
      "precision": "address"
    },
    {
      "name": "Glengarry Memorial Hospital",
      "category": "hospital",
      "facility_type": "Hospital",
      "address": "20260 County Road 43, Alexandria, Ontario, K0C 1A0",
      "city": "Alexandria",
      "postal_code": "K0C 1A0",
      "phone": "613-525-2222, Ext 4132",
      "email": "info@hgmh.on.ca",
      "lat": 45.306228,
      "lon": -74.6441346,
      "precision": "address"
    },
    {
      "name": "Winchester District Memorial Hospital-Winchester Region",
      "category": "hospital",
      "facility_type": "Hospital",
      "address": "566 Louise Street, Winchester, Ontario, K0C 2K0",
      "city": "Winchester",
      "postal_code": "K0C 2K0",
      "phone": "613-774-2420, Ext 6872",
      "email": "physio@wdmh.on.ca",
      "lat": 45.0882574,
      "lon": -75.3542849,
      "precision": "address"
    },
    {
      "name": "Kemptville District Hospital",
      "category": "hospital",
      "facility_type": "Hospital",
      "address": "2675 Concession Road, Kemptville, Ontario, K0G 1J0",
      "city": "Kemptville",
      "postal_code": "K0G 1J0",
      "phone": "613-656-1400",
      "email": "kemptville@prophysiotherapy.com",
      "lat": 45.0091204,
      "lon": -75.6434722,
      "precision": "address"
    },
    {
      "name": "Deep River and District Hospital",
      "category": "hospital",
      "facility_type": "Hospital",
      "address": "117 Banting Drive, Deep River, Ontario, K0J 1P0",
      "city": "Deep River",
      "postal_code": "K0J 1P0",
      "phone": "N/A",
      "email": "N/A",
      "lat": 46.091008,
      "lon": -77.4750419,
      "precision": "address"
    },
    {
      "name": "Haliburton Highlands Health Services Corporation",
      "category": "hospital",
      "facility_type": "Hospital",
      "address": "7199 Gelert Road, Haliburton, Ontario, K0M 1S0",
      "city": "Haliburton",
      "postal_code": "K0M 1S0",
      "phone": "705-457-1392 Ext2226",
      "email": "N/A",
      "lat": 45.038517,
      "lon": -78.5294869,
      "precision": "address"
    },
    {
      "name": "The Ottawa Hospital (Riverside Rehabilitation Centre)",
      "category": "hospital",
      "facility_type": "Hospital",
      "address": "1967 Riverside Drive, \nMailbox 28, Ottawa, Ontario, K1S 0L8",
      "city": "Ottawa",
      "postal_code": "K1S 0L8",
      "phone": "613-738-8208",
      "email": "rivrehabdept@toh.on.ca",
      "lat": 45.395918,
      "lon": -75.6689632,
      "precision": "address"
    },
    {
      "name": "Perth & Smiths Falls District Hospital",
      "category": "hospital",
      "facility_type": "Hospital",
      "address": "60 Cornelia Street West, Smiths Falls, Ontario, K7A 2H9",
      "city": "Smiths Falls",
      "postal_code": "K7A 2H9",
      "phone": "613-283-2330",
      "email": "cpc@psfdh.on.ca",
      "lat": 44.9071707,
      "lon": -76.0270416,
      "precision": "address"
    },
    {
      "name": "Carleton Place & District Memorial Hospital",
      "category": "hospital",
      "facility_type": "Hospital",
      "address": "211 Lake Avenue East, Carleton Place, Ontario, K7C 1J4",
      "city": "Carleton Place",
      "postal_code": "K7C 1J4",
      "phone": "613-253-3822",
      "email": "physio@carletonplacehosp.com",
      "lat": 45.1412055,
      "lon": -76.1366282,
      "precision": "address"
    },
    {
      "name": "Arnprior Regional Health",
      "category": "hospital",
      "facility_type": "Hospital",
      "address": "350 John Street North, Arnprior, Ontario, K7S 2P6",
      "city": "Arnprior",
      "postal_code": "K7S 2P6",
      "phone": "613-623-3166, Ext 204",
      "email": "physio@arnpriorhealth.ca",
      "lat": 45.4411741,
      "lon": -76.353038,
      "precision": "address"
    },
    {
      "name": "Renfrew Victoria Hospital",
      "category": "hospital",
      "facility_type": "Hospital",
      "address": "499 Raglan Street, North, Renfrew, Ontario, K7V 1P6",
      "city": "Renfrew",
      "postal_code": "K7V 1P6",
      "phone": "613-432-4851 Ext 281",
      "email": "st.michaelj@renfrewhosp.com",
      "lat": 45.4825484,
      "lon": -76.6972468,
      "precision": "address"
    },
    {
      "name": "Brockville General Hospital",
      "category": "hospital",
      "facility_type": "Hospital",
      "address": "42 Garden Street, Brockville, Ontario, K7V 2C3",
      "city": "Brockville",
      "postal_code": "K7V 2C3",
      "phone": "613-345-5649",
      "email": "bghopphysio@bgh-on.ca",
      "lat": 44.5923261,
      "lon": -75.6835834,
      "precision": "address"
    },
    {
      "name": "Pembroke Regional Hospital",
      "category": "hospital",
      "facility_type": "Hospital",
      "address": "705 MacKay Street, Pembroke, Ontario, K8A 1G8",
      "city": "Pembroke",
      "postal_code": "K8A 1G8",
      "phone": "613-732-2811",
      "email": "N/A",
      "lat": 45.8147316,
      "lon": -77.1070475,
      "precision": "address"
    },
    {
      "name": "Niagara Health System - Douglas Memorial Hospital",
      "category": "hospital",
      "facility_type": "Hospital",
      "address": "230 Bertie Street, Fort Erie, Ontario, L2A 1Z2",
      "city": "Fort Erie",
      "postal_code": "L2A 1Z2",
      "phone": "905-378-4647, Ext 50269",
      "email": "N/A",
      "lat": 42.911764,
      "lon": -78.9242347,
      "precision": "address"
    },
    {
      "name": "Orillia Soldiers Memorial Hospital",
      "category": "hospital",
      "facility_type": "Hospital",
      "address": "170 Colborne Street West, Orillia, Ontario, L3V 2Z3",
      "city": "Orillia",
      "postal_code": "L3V 2Z3",
      "phone": "705-325-2201",
      "email": "N/A",
      "lat": 44.6049107,
      "lon": -79.4257984,
      "precision": "address"
    },
    {
      "name": "Southlake Health",
      "category": "hospital",
      "facility_type": "Hospital",
      "address": "596 Davis Drive, Newmarket, Ontario, L3Y 2P9",
      "city": "Newmarket",
      "postal_code": "L3Y 2P9",
      "phone": "905-895-4521 Ext2401",
      "email": "N/A",
      "lat": 44.0602821,
      "lon": -79.4516772,
      "precision": "address"
    },
    {
      "name": "Stevenson Memorial Hospital",
      "category": "hospital",
      "facility_type": "Hospital",
      "address": "200 Fletcher Crescent, Alliston, Ontario, L9R 1W7",
      "city": "Alliston",
      "postal_code": "L9R 1W7",
      "phone": "705-435-6281",
      "email": "N/A",
      "lat": 44.1554289,
      "lon": -79.8748688,
      "precision": "address"
    },
    {
      "name": "Unity Health Toronto",
      "category": "hospital",
      "facility_type": "Hospital",
      "address": "30 The Queensway, Toronto, Ontario, M6R 1B5",
      "city": "Toronto",
      "postal_code": "M6R 1B5",
      "phone": "416-530-6058",
      "email": "N/A",
      "lat": 43.6404429,
      "lon": -79.4501518,
      "precision": "address"
    },
    {
      "name": "North Wellington Health Care Corporation - Palmerston & District Hospital",
      "category": "hospital",
      "facility_type": "Hospital",
      "address": "500 Whites Road, Palmerston, Ontario, N0G 2P0",
      "city": "Palmerston",
      "postal_code": "N0G 2P0",
      "phone": "519-343-2030",
      "email": "N/A",
      "lat": 43.838878,
      "lon": -80.8430273,
      "precision": "address"
    },
    {
      "name": "South Bruce Grey Health Centre-Walkerton Site",
      "category": "hospital",
      "facility_type": "Hospital",
      "address": "21 McGivern Street, Box 1300, Walkerton, Ontario, N0G 2V0",
      "city": "Walkerton",
      "postal_code": "N0G 2V0",
      "phone": "519-370-2405",
      "email": "N/A",
      "lat": 44.1221749,
      "lon": -81.153141,
      "precision": "address"
    },
    {
      "name": "Wingham and District Hospital",
      "category": "hospital",
      "facility_type": "Hospital",
      "address": "270 Carling Terrace, Wingham, Ontario, N0G 2W0",
      "city": "Wingham",
      "postal_code": "N0G 2W0",
      "phone": "519-357-3711, ext 5273",
      "email": "N/A",
      "lat": 43.8848634,
      "lon": -81.3066958,
      "precision": "address"
    },
    {
      "name": "Huron Perth Healthcare Alliance - Seaforth Site",
      "category": "hospital",
      "facility_type": "Hospital",
      "address": "24 Centennial Drive, Seaforth, Ontario, N0K 1W0",
      "city": "Seaforth",
      "postal_code": "N0K 1W0",
      "phone": "519-527-1650",
      "email": "N/A",
      "lat": 43.5518207,
      "lon": -81.3841562,
      "precision": "address"
    },
    {
      "name": "Four Counties Health Services",
      "category": "hospital",
      "facility_type": "Hospital",
      "address": "1824 Concession Drive, RR#3, Newbury, Ontario, N0L 1Z0",
      "city": "Newbury",
      "postal_code": "N0L 1Z0",
      "phone": "519-693-7111",
      "email": "N/A",
      "lat": 42.6833042,
      "lon": -81.7890861,
      "precision": "address"
    },
    {
      "name": "St. Joseph's Health Centre-Guelph",
      "category": "hospital",
      "facility_type": "Hospital",
      "address": "100 Westmount Road, Guelph, Ontario, N1H 5H8",
      "city": "Guelph",
      "postal_code": "N1H 5H8",
      "phone": "519-824-6000, ext 3414",
      "email": "N/A",
      "lat": 43.5499034,
      "lon": -80.272032,
      "precision": "address"
    },
    {
      "name": "Groves Memorial Community Hospital",
      "category": "hospital",
      "facility_type": "Hospital",
      "address": "235 Union Street East, Fergus, Ontario, N1M 1W3",
      "city": "Fergus",
      "postal_code": "N1M 1W3",
      "phone": "519-843-2010",
      "email": "N/A",
      "lat": 43.7072751,
      "lon": -80.3702967,
      "precision": "address"
    },
    {
      "name": "Grand River Hospital",
      "category": "hospital",
      "facility_type": "Hospital",
      "address": "3570 King Street East, Kitchener, Ontario, N2A 2W1",
      "city": "Kitchener",
      "postal_code": "N2A 2W1",
      "phone": "519-742-3611",
      "email": "N/A",
      "lat": 43.4254897,
      "lon": -80.4116269,
      "precision": "address"
    },